[
  {
    "id": 3842140,
    "name": "Pampa de los Guanacos",
    "country": "AR",
    "coord": {
      "lon": -61.849998,
      "lat": -26.23333
    }
  },
  {
    "id": 3858204,
    "name": "El Destierro",
    "country": "AR",
    "coord": {
      "lon": -62.47662,
      "lat": -24.1
    }
  },
  {
    "id": 3866425,
    "name": "Albardon",
    "country": "AR",
    "coord": {
      "lon": -68.525558,
      "lat": -31.43722
    }
  },
  {
    "id": 3435259,
    "name": "Congreso",
    "country": "AR",
    "coord": {
      "lon": -58.39225,
      "lat": -34.609482
    }
  },
  {
    "id": 3866242,
    "name": "Allen",
    "country": "AR",
    "coord": {
      "lon": -67.827141,
      "lat": -38.97736
    }
  },
  {
    "id": 3864375,
    "name": "Bella Vista",
    "country": "AR",
    "coord": {
      "lon": -65.303146,
      "lat": -27.03084
    }
  },
  {
    "id": 3859552,
    "name": "Cutral-Co",
    "country": "AR",
    "coord": {
      "lon": -69.208893,
      "lat": -38.94688
    }
  },
  {
    "id": 3435525,
    "name": "Cerro Cora",
    "country": "AR",
    "coord": {
      "lon": -55.608959,
      "lat": -27.5131
    }
  },
  {
    "id": 3435765,
    "name": "Campo Ramon",
    "country": "AR",
    "coord": {
      "lon": -55.019009,
      "lat": -27.461081
    }
  },
  {
    "id": 3436287,
    "name": "Aristobulo del Valle",
    "country": "AR",
    "coord": {
      "lon": -54.896259,
      "lat": -27.096251
    }
  },
  {
    "id": 3435356,
    "name": "Colegiales",
    "country": "AR",
    "coord": {
      "lon": -58.449242,
      "lat": -34.57365
    }
  },
  {
    "id": 3432077,
    "name": "Departamento de La Paz",
    "country": "AR",
    "coord": {
      "lon": -59.416672,
      "lat": -30.83333
    }
  },
  {
    "id": 3430599,
    "name": "Departamento de Montecarlo",
    "country": "AR",
    "coord": {
      "lon": -54.583328,
      "lat": -26.716669
    }
  },
  {
    "id": 3430339,
    "name": "Departamento de Oberá",
    "country": "AR",
    "coord": {
      "lon": -55.083328,
      "lat": -27.549999
    }
  },
  {
    "id": 3436307,
    "name": "Arana",
    "country": "AR",
    "coord": {
      "lon": -57.900002,
      "lat": -35
    }
  },
  {
    "id": 3865689,
    "name": "Antapoca",
    "country": "AR",
    "coord": {
      "lon": -65.762161,
      "lat": -28.51528
    }
  },
  {
    "id": 3866056,
    "name": "Alto de Sierra",
    "country": "AR",
    "coord": {
      "lon": -68.421082,
      "lat": -31.5376
    }
  },
  {
    "id": 3866035,
    "name": "Alto Rio Senguer",
    "country": "AR",
    "coord": {
      "lon": -70.819817,
      "lat": -45.04105
    }
  },
  {
    "id": 3860319,
    "name": "Contraalmirante Cordero",
    "country": "AR",
    "coord": {
      "lon": -68.15284,
      "lat": -38.724232
    }
  },
  {
    "id": 3860419,
    "name": "Concepcion del Bermejo",
    "country": "AR",
    "coord": {
      "lon": -60.946171,
      "lat": -26.59926
    }
  },
  {
    "id": 3860757,
    "name": "Colonia La Tordilla",
    "country": "AR",
    "coord": {
      "lon": -63.06134,
      "lat": -31.237459
    }
  },
  {
    "id": 3864641,
    "name": "Barrio Almirante Brown",
    "country": "AR",
    "coord": {
      "lon": -68.333328,
      "lat": -54.816669
    }
  },
  {
    "id": 3436113,
    "name": "Barrio El Retazo",
    "country": "AR",
    "coord": {
      "lon": -57.583328,
      "lat": -37.916672
    }
  },
  {
    "id": 3860289,
    "name": "Departamento de Copo",
    "country": "AR",
    "coord": {
      "lon": -62.75,
      "lat": -26
    }
  },
  {
    "id": 3436108,
    "name": "Barrio Nuevo",
    "country": "AR",
    "coord": {
      "lon": -59.197559,
      "lat": -37.316639
    }
  },
  {
    "id": 3862555,
    "name": "Caroya",
    "country": "AR",
    "coord": {
      "lon": -64.116669,
      "lat": -31.033331
    }
  },
  {
    "id": 3435968,
    "name": "Bouvier",
    "country": "AR",
    "coord": {
      "lon": -57.581161,
      "lat": -25.461969
    }
  },
  {
    "id": 3861677,
    "name": "Charbonier",
    "country": "AR",
    "coord": {
      "lon": -64.543747,
      "lat": -30.77302
    }
  },
  {
    "id": 3860709,
    "name": "Colonia Seré",
    "country": "AR",
    "coord": {
      "lon": -62.725422,
      "lat": -35.436878
    }
  },
  {
    "id": 3429402,
    "name": "Departamento de Saladas",
    "country": "AR",
    "coord": {
      "lon": -58.75,
      "lat": -28.25
    }
  },
  {
    "id": 3433487,
    "name": "Departamento de Iguazú",
    "country": "AR",
    "coord": {
      "lon": -54.366669,
      "lat": -25.866671
    }
  },
  {
    "id": 3866959,
    "name": "Achiras",
    "country": "AR",
    "coord": {
      "lon": -64.993309,
      "lat": -33.175381
    }
  },
  {
    "id": 3436230,
    "name": "Avellaneda",
    "country": "AR",
    "coord": {
      "lon": -59.65834,
      "lat": -29.117611
    }
  },
  {
    "id": 3429156,
    "name": "Departamento de San Cosme",
    "country": "AR",
    "coord": {
      "lon": -58.5,
      "lat": -27.33333
    }
  },
  {
    "id": 3861059,
    "name": "Cintra",
    "country": "AR",
    "coord": {
      "lon": -62.652142,
      "lat": -32.306728
    }
  },
  {
    "id": 3864574,
    "name": "Bauer y Sigel",
    "country": "AR",
    "coord": {
      "lon": -61.945309,
      "lat": -31.27182
    }
  },
  {
    "id": 3860818,
    "name": "Colonia Almada",
    "country": "AR",
    "coord": {
      "lon": -63.864029,
      "lat": -32.03503
    }
  },
  {
    "id": 3859500,
    "name": "Del Campillo",
    "country": "AR",
    "coord": {
      "lon": -64.495041,
      "lat": -34.376591
    }
  },
  {
    "id": 3434958,
    "name": "Echagüe",
    "country": "AR",
    "coord": {
      "lon": -59.282001,
      "lat": -32.39185
    }
  },
  {
    "id": 3864299,
    "name": "Bermejo",
    "country": "AR",
    "coord": {
      "lon": -68.800003,
      "lat": -32.883331
    }
  },
  {
    "id": 3854459,
    "name": "Departamento de Guaymallén",
    "country": "AR",
    "coord": {
      "lon": -68.699997,
      "lat": -32.883331
    }
  },
  {
    "id": 3864731,
    "name": "Barrancas",
    "country": "AR",
    "coord": {
      "lon": -60.980011,
      "lat": -32.234219
    }
  },
  {
    "id": 3427535,
    "name": "Departamento de Veinticinco de Mayo",
    "country": "AR",
    "coord": {
      "lon": -54.666672,
      "lat": -27.41667
    }
  },
  {
    "id": 3861713,
    "name": "Chapanay",
    "country": "AR",
    "coord": {
      "lon": -68.433327,
      "lat": -32.98333
    }
  },
  {
    "id": 3865786,
    "name": "Andino",
    "country": "AR",
    "coord": {
      "lon": -60.87722,
      "lat": -32.66832
    }
  },
  {
    "id": 3859946,
    "name": "Cotagaita",
    "country": "AR",
    "coord": {
      "lon": -62.07402,
      "lat": -30.913071
    }
  },
  {
    "id": 3435974,
    "name": "Bosques",
    "country": "AR",
    "coord": {
      "lon": -58.234428,
      "lat": -34.819271
    }
  },
  {
    "id": 3435107,
    "name": "Curuzú",
    "country": "AR",
    "coord": {
      "lon": -55.824799,
      "lat": -27.914869
    }
  },
  {
    "id": 3860197,
    "name": "Coronel Du Graty",
    "country": "AR",
    "coord": {
      "lon": -60.914619,
      "lat": -27.68038
    }
  },
  {
    "id": 3865742,
    "name": "Anguil",
    "country": "AR",
    "coord": {
      "lon": -64.010246,
      "lat": -36.525669
    }
  },
  {
    "id": 3428003,
    "name": "Departamento de Sauce",
    "country": "AR",
    "coord": {
      "lon": -58.666672,
      "lat": -30
    }
  },
  {
    "id": 3866396,
    "name": "Aldea Brasilera",
    "country": "AR",
    "coord": {
      "lon": -60.589981,
      "lat": -31.8901
    }
  },
  {
    "id": 3862889,
    "name": "Cañadón Seco",
    "country": "AR",
    "coord": {
      "lon": -67.583328,
      "lat": -46.549999
    }
  },
  {
    "id": 3428638,
    "name": "Departamento de San Miguel",
    "country": "AR",
    "coord": {
      "lon": -57.5,
      "lat": -27.91667
    }
  },
  {
    "id": 3847102,
    "name": "Departamento de Leales",
    "country": "AR",
    "coord": {
      "lon": -65.083328,
      "lat": -27.200001
    }
  },
  {
    "id": 3865776,
    "name": "Anelo",
    "country": "AR",
    "coord": {
      "lon": -68.788399,
      "lat": -38.354408
    }
  },
  {
    "id": 3865775,
    "name": "Departamento de Añelo",
    "country": "AR",
    "coord": {
      "lon": -69,
      "lat": -38.166672
    }
  },
  {
    "id": 3866308,
    "name": "Algarrobo",
    "country": "AR",
    "coord": {
      "lon": -63.13792,
      "lat": -38.894459
    }
  },
  {
    "id": 3865491,
    "name": "Arenaza",
    "country": "AR",
    "coord": {
      "lon": -61.773651,
      "lat": -34.98597
    }
  },
  {
    "id": 3436395,
    "name": "Almirante Brown",
    "country": "AR",
    "coord": {
      "lon": -58.450001,
      "lat": -34.666672
    }
  },
  {
    "id": 3866375,
    "name": "Aldea San Francisco",
    "country": "AR",
    "coord": {
      "lon": -60.63517,
      "lat": -31.961241
    }
  },
  {
    "id": 3860705,
    "name": "Colonia Tirolesa",
    "country": "AR",
    "coord": {
      "lon": -64.086411,
      "lat": -31.237289
    }
  },
  {
    "id": 3860208,
    "name": "Coronel Baigorria",
    "country": "AR",
    "coord": {
      "lon": -64.361069,
      "lat": -32.847698
    }
  },
  {
    "id": 3862719,
    "name": "Carabelas",
    "country": "AR",
    "coord": {
      "lon": -60.867111,
      "lat": -34.035851
    }
  },
  {
    "id": 3864430,
    "name": "Belén",
    "country": "AR",
    "coord": {
      "lon": -67.028702,
      "lat": -27.65103
    }
  },
  {
    "id": 3863362,
    "name": "Calingasta",
    "country": "AR",
    "coord": {
      "lon": -69.407829,
      "lat": -31.330839
    }
  },
  {
    "id": 3865840,
    "name": "Anatuya",
    "country": "AR",
    "coord": {
      "lon": -62.834721,
      "lat": -28.46064
    }
  },
  {
    "id": 3864891,
    "name": "Ballesteros",
    "country": "AR",
    "coord": {
      "lon": -62.983021,
      "lat": -32.545341
    }
  },
  {
    "id": 3841298,
    "name": "Departamento de Picún Leufú",
    "country": "AR",
    "coord": {
      "lon": -69.5,
      "lat": -39.5
    }
  },
  {
    "id": 3832079,
    "name": "Departamento de Zonda",
    "country": "AR",
    "coord": {
      "lon": -68.583527,
      "lat": -31.68494
    }
  },
  {
    "id": 3860881,
    "name": "Colastiné Sur",
    "country": "AR",
    "coord": {
      "lon": -60.600899,
      "lat": -31.66086
    }
  },
  {
    "id": 3866082,
    "name": "Alto de la Piedra",
    "country": "AR",
    "coord": {
      "lon": -64.350647,
      "lat": -31.591431
    }
  },
  {
    "id": 3865974,
    "name": "Amadores",
    "country": "AR",
    "coord": {
      "lon": -65.637901,
      "lat": -28.26284
    }
  },
  {
    "id": 3865413,
    "name": "Arroyo Cabral",
    "country": "AR",
    "coord": {
      "lon": -63.40126,
      "lat": -32.491192
    }
  },
  {
    "id": 3859502,
    "name": "De la Garma",
    "country": "AR",
    "coord": {
      "lon": -60.415001,
      "lat": -37.96336
    }
  },
  {
    "id": 3436203,
    "name": "Azcuénaga",
    "country": "AR",
    "coord": {
      "lon": -59.374409,
      "lat": -34.364609
    }
  },
  {
    "id": 3860427,
    "name": "Concepción",
    "country": "AR",
    "coord": {
      "lon": -65.59726,
      "lat": -27.342779
    }
  },
  {
    "id": 3863503,
    "name": "Cafayate",
    "country": "AR",
    "coord": {
      "lon": -65.976143,
      "lat": -26.07295
    }
  },
  {
    "id": 3430759,
    "name": "Departamento de Mburucuyá",
    "country": "AR",
    "coord": {
      "lon": -58.25,
      "lat": -28
    }
  },
  {
    "id": 3863502,
    "name": "Departamento de Cafayate",
    "country": "AR",
    "coord": {
      "lon": -65.833328,
      "lat": -26.08333
    }
  },
  {
    "id": 3854492,
    "name": "Departamento de Guatraché",
    "country": "AR",
    "coord": {
      "lon": -63.75,
      "lat": -37.5
    }
  },
  {
    "id": 3859498,
    "name": "Delfín Gallo",
    "country": "AR",
    "coord": {
      "lon": -65.09137,
      "lat": -26.853331
    }
  },
  {
    "id": 3859956,
    "name": "Costa de Araujo",
    "country": "AR",
    "coord": {
      "lon": -68.3974,
      "lat": -32.757809
    }
  },
  {
    "id": 3859951,
    "name": "Costa Sacate",
    "country": "AR",
    "coord": {
      "lon": -63.75935,
      "lat": -31.647699
    }
  },
  {
    "id": 3862820,
    "name": "Candonga",
    "country": "AR",
    "coord": {
      "lon": -64.3619,
      "lat": -31.099279
    }
  },
  {
    "id": 3860733,
    "name": "Colonia Río Chico",
    "country": "AR",
    "coord": {
      "lon": -64.016762,
      "lat": -31.27132
    }
  },
  {
    "id": 3865448,
    "name": "Arocena",
    "country": "AR",
    "coord": {
      "lon": -60.976158,
      "lat": -32.07859
    }
  },
  {
    "id": 3859103,
    "name": "Ducós",
    "country": "AR",
    "coord": {
      "lon": -62.416672,
      "lat": -37.466671
    }
  },
  {
    "id": 3435532,
    "name": "Cerro Azul",
    "country": "AR",
    "coord": {
      "lon": -55.496201,
      "lat": -27.633101
    }
  },
  {
    "id": 3859102,
    "name": "Dudignac",
    "country": "AR",
    "coord": {
      "lon": -60.705219,
      "lat": -35.649059
    }
  },
  {
    "id": 3435340,
    "name": "Colonia Benitez",
    "country": "AR",
    "coord": {
      "lon": -58.94622,
      "lat": -27.33099
    }
  },
  {
    "id": 3863262,
    "name": "Campanas",
    "country": "AR",
    "coord": {
      "lon": -67.617264,
      "lat": -28.553949
    }
  },
  {
    "id": 3861846,
    "name": "Chaján",
    "country": "AR",
    "coord": {
      "lon": -65.004784,
      "lat": -33.556358
    }
  },
  {
    "id": 3866667,
    "name": "Agua de Oro",
    "country": "AR",
    "coord": {
      "lon": -64.300171,
      "lat": -31.06661
    }
  },
  {
    "id": 3435734,
    "name": "Candelaria",
    "country": "AR",
    "coord": {
      "lon": -55.745361,
      "lat": -27.459499
    }
  },
  {
    "id": 3435732,
    "name": "Departamento de Candelaria",
    "country": "AR",
    "coord": {
      "lon": -55.5,
      "lat": -27.5
    }
  },
  {
    "id": 3836752,
    "name": "Departamento de San Pedro",
    "country": "AR",
    "coord": {
      "lon": -64.833328,
      "lat": -24.33333
    }
  },
  {
    "id": 3840858,
    "name": "Departamento de Pocito",
    "country": "AR",
    "coord": {
      "lon": -68.699997,
      "lat": -31.799999
    }
  },
  {
    "id": 3865474,
    "name": "Arias",
    "country": "AR",
    "coord": {
      "lon": -62.402721,
      "lat": -33.644112
    }
  },
  {
    "id": 3836983,
    "name": "Departamento de San Martín",
    "country": "AR",
    "coord": {
      "lon": -65.666672,
      "lat": -32.666672
    }
  },
  {
    "id": 3862215,
    "name": "Cayastá",
    "country": "AR",
    "coord": {
      "lon": -60.160549,
      "lat": -31.20089
    }
  },
  {
    "id": 3434966,
    "name": "Durazno",
    "country": "AR",
    "coord": {
      "lon": -59.277802,
      "lat": -31.98564
    }
  },
  {
    "id": 3863833,
    "name": "Brinkmann",
    "country": "AR",
    "coord": {
      "lon": -62.037418,
      "lat": -30.8659
    }
  },
  {
    "id": 3435539,
    "name": "Cerrito",
    "country": "AR",
    "coord": {
      "lon": -57.912769,
      "lat": -27.84218
    }
  },
  {
    "id": 3861257,
    "name": "Chovet",
    "country": "AR",
    "coord": {
      "lon": -61.605808,
      "lat": -33.598759
    }
  },
  {
    "id": 3434094,
    "name": "Departamento de Esquina",
    "country": "AR",
    "coord": {
      "lon": -59.333328,
      "lat": -30
    }
  },
  {
    "id": 3435750,
    "name": "Campo Viera",
    "country": "AR",
    "coord": {
      "lon": -55.033329,
      "lat": -27.383329
    }
  },
  {
    "id": 3434731,
    "name": "El Colorado",
    "country": "AR",
    "coord": {
      "lon": -59.37291,
      "lat": -26.308081
    }
  },
  {
    "id": 3859535,
    "name": "Dalmacio Velez Sarsfield",
    "country": "AR",
    "coord": {
      "lon": -63.580379,
      "lat": -32.610722
    }
  },
  {
    "id": 3863377,
    "name": "Caleufu",
    "country": "AR",
    "coord": {
      "lon": -64.557777,
      "lat": -35.595589
    }
  },
  {
    "id": 3866367,
    "name": "Alderetes",
    "country": "AR",
    "coord": {
      "lon": -65.133331,
      "lat": -26.816669
    }
  },
  {
    "id": 3435234,
    "name": "Coronel Vidal",
    "country": "AR",
    "coord": {
      "lon": -57.728649,
      "lat": -37.446041
    }
  },
  {
    "id": 3861494,
    "name": "Chicoana",
    "country": "AR",
    "coord": {
      "lon": -65.533096,
      "lat": -25.10088
    }
  },
  {
    "id": 3861493,
    "name": "Departamento de Chicoana",
    "country": "AR",
    "coord": {
      "lon": -65.583328,
      "lat": -25.16667
    }
  },
  {
    "id": 3436030,
    "name": "Bernardo de Irigoyen",
    "country": "AR",
    "coord": {
      "lon": -53.645809,
      "lat": -26.255199
    }
  },
  {
    "id": 3434932,
    "name": "El Alcazar",
    "country": "AR",
    "coord": {
      "lon": -54.815231,
      "lat": -26.71459
    }
  },
  {
    "id": 3434995,
    "name": "Dos de Mayo",
    "country": "AR",
    "coord": {
      "lon": -54.686691,
      "lat": -27.02277
    }
  },
  {
    "id": 3434997,
    "name": "Dos Arroyos",
    "country": "AR",
    "coord": {
      "lon": -55.233639,
      "lat": -27.70784
    }
  },
  {
    "id": 3435030,
    "name": "Dominguez",
    "country": "AR",
    "coord": {
      "lon": -58.961971,
      "lat": -31.987101
    }
  },
  {
    "id": 3435178,
    "name": "Cruz de los Milagros",
    "country": "AR",
    "coord": {
      "lon": -59.004761,
      "lat": -28.83646
    }
  },
  {
    "id": 3435196,
    "name": "Cote-Lai",
    "country": "AR",
    "coord": {
      "lon": -59.599998,
      "lat": -27.5
    }
  },
  {
    "id": 3435258,
    "name": "Conscripto Bernardi",
    "country": "AR",
    "coord": {
      "lon": -59.084351,
      "lat": -31.04837
    }
  },
  {
    "id": 3435269,
    "name": "Departamento de Concepción",
    "country": "AR",
    "coord": {
      "lon": -58,
      "lat": -28.33333
    }
  },
  {
    "id": 3435273,
    "name": "Concepcion",
    "country": "AR",
    "coord": {
      "lon": -57.887772,
      "lat": -28.39175
    }
  },
  {
    "id": 3435283,
    "name": "Comandante Fontana",
    "country": "AR",
    "coord": {
      "lon": -59.682121,
      "lat": -25.33453
    }
  },
  {
    "id": 3435290,
    "name": "Colonia Wanda",
    "country": "AR",
    "coord": {
      "lon": -54.428059,
      "lat": -25.974079
    }
  },
  {
    "id": 3435295,
    "name": "Colonias Unidas",
    "country": "AR",
    "coord": {
      "lon": -59.631538,
      "lat": -26.69825
    }
  },
  {
    "id": 3435330,
    "name": "Colonia Elisa",
    "country": "AR",
    "coord": {
      "lon": -59.518608,
      "lat": -26.93041
    }
  },
  {
    "id": 3435331,
    "name": "Colonia Elia",
    "country": "AR",
    "coord": {
      "lon": -58.32148,
      "lat": -32.666248
    }
  },
  {
    "id": 3435344,
    "name": "Colonia Aurora",
    "country": "AR",
    "coord": {
      "lon": -54.524979,
      "lat": -27.474279
    }
  },
  {
    "id": 3435399,
    "name": "Ciervo Petiso",
    "country": "AR",
    "coord": {
      "lon": -59.630939,
      "lat": -26.58041
    }
  },
  {
    "id": 3435444,
    "name": "Chavarria",
    "country": "AR",
    "coord": {
      "lon": -58.572769,
      "lat": -28.95488
    }
  },
  {
    "id": 3435453,
    "name": "Charadai",
    "country": "AR",
    "coord": {
      "lon": -59.900002,
      "lat": -27.633329
    }
  },
  {
    "id": 3435570,
    "name": "Ceibas",
    "country": "AR",
    "coord": {
      "lon": -58.75,
      "lat": -33.433331
    }
  },
  {
    "id": 3435612,
    "name": "Caseros",
    "country": "AR",
    "coord": {
      "lon": -58.478722,
      "lat": -32.463249
    }
  },
  {
    "id": 3435679,
    "name": "Caraguatay",
    "country": "AR",
    "coord": {
      "lon": -54.78093,
      "lat": -26.605869
    }
  },
  {
    "id": 3435688,
    "name": "Capitan Solari",
    "country": "AR",
    "coord": {
      "lon": -59.56089,
      "lat": -26.802151
    }
  },
  {
    "id": 3435701,
    "name": "Capiovi",
    "country": "AR",
    "coord": {
      "lon": -55.060841,
      "lat": -26.929979
    }
  },
  {
    "id": 3435789,
    "name": "Campo Grande",
    "country": "AR",
    "coord": {
      "lon": -54.979771,
      "lat": -27.207701
    }
  },
  {
    "id": 3435988,
    "name": "Bonpland",
    "country": "AR",
    "coord": {
      "lon": -57.431461,
      "lat": -29.823971
    }
  },
  {
    "id": 3435989,
    "name": "Bonpland",
    "country": "AR",
    "coord": {
      "lon": -55.477558,
      "lat": -27.48218
    }
  },
  {
    "id": 3436100,
    "name": "Basail",
    "country": "AR",
    "coord": {
      "lon": -59.299999,
      "lat": -27.866671
    }
  },
  {
    "id": 3436205,
    "name": "Azara",
    "country": "AR",
    "coord": {
      "lon": -55.677971,
      "lat": -28.0616
    }
  },
  {
    "id": 3436267,
    "name": "Arroyo del Medio",
    "country": "AR",
    "coord": {
      "lon": -55.416672,
      "lat": -27.700001
    }
  },
  {
    "id": 3436370,
    "name": "Alvear",
    "country": "AR",
    "coord": {
      "lon": -56.55043,
      "lat": -29.09683
    }
  },
  {
    "id": 3436398,
    "name": "Almafuerte",
    "country": "AR",
    "coord": {
      "lon": -55.39497,
      "lat": -27.50518
    }
  },
  {
    "id": 3436433,
    "name": "Aldea San Antonio",
    "country": "AR",
    "coord": {
      "lon": -58.703331,
      "lat": -32.62376
    }
  },
  {
    "id": 3436448,
    "name": "Alba Posse",
    "country": "AR",
    "coord": {
      "lon": -54.682621,
      "lat": -27.56978
    }
  },
  {
    "id": 3435813,
    "name": "Camet",
    "country": "AR",
    "coord": {
      "lon": -57.605019,
      "lat": -37.88903
    }
  },
  {
    "id": 3866923,
    "name": "Adolfo Gonzáles Chaves",
    "country": "AR",
    "coord": {
      "lon": -60.099998,
      "lat": -38.033329
    }
  },
  {
    "id": 3862583,
    "name": "Carmen de Patagones",
    "country": "AR",
    "coord": {
      "lon": -62.980968,
      "lat": -40.798279
    }
  },
  {
    "id": 3435266,
    "name": "Concepcion de la Sierra",
    "country": "AR",
    "coord": {
      "lon": -55.520309,
      "lat": -27.98311
    }
  },
  {
    "id": 3433362,
    "name": "Departamento de Itatí",
    "country": "AR",
    "coord": {
      "lon": -58,
      "lat": -27.33333
    }
  },
  {
    "id": 3436414,
    "name": "Alejandro Korn",
    "country": "AR",
    "coord": {
      "lon": -58.3825,
      "lat": -34.98278
    }
  },
  {
    "id": 3859179,
    "name": "Dorila",
    "country": "AR",
    "coord": {
      "lon": -63.715611,
      "lat": -35.775681
    }
  },
  {
    "id": 3862240,
    "name": "Caucete",
    "country": "AR",
    "coord": {
      "lon": -68.281052,
      "lat": -31.651791
    }
  },
  {
    "id": 3436003,
    "name": "Boedo",
    "country": "AR",
    "coord": {
      "lon": -58.416672,
      "lat": -34.633331
    }
  },
  {
    "id": 3865762,
    "name": "Angélica",
    "country": "AR",
    "coord": {
      "lon": -61.54599,
      "lat": -31.55127
    }
  },
  {
    "id": 3854723,
    "name": "Departamento de Graneros",
    "country": "AR",
    "coord": {
      "lon": -65.333328,
      "lat": -27.75
    }
  },
  {
    "id": 3864847,
    "name": "Bandera",
    "country": "AR",
    "coord": {
      "lon": -62.265999,
      "lat": -28.888399
    }
  },
  {
    "id": 3861666,
    "name": "Charras",
    "country": "AR",
    "coord": {
      "lon": -64.047188,
      "lat": -33.023998
    }
  },
  {
    "id": 3865223,
    "name": "Ausonia",
    "country": "AR",
    "coord": {
      "lon": -63.24398,
      "lat": -32.661671
    }
  },
  {
    "id": 3864328,
    "name": "Beltran",
    "country": "AR",
    "coord": {
      "lon": -64.060982,
      "lat": -27.82913
    }
  },
  {
    "id": 3864274,
    "name": "Berrotaran",
    "country": "AR",
    "coord": {
      "lon": -64.388672,
      "lat": -32.451
    }
  },
  {
    "id": 3833878,
    "name": "Departamento de Trenel",
    "country": "AR",
    "coord": {
      "lon": -64.25,
      "lat": -35.666672
    }
  },
  {
    "id": 3864261,
    "name": "Bialet Massé",
    "country": "AR",
    "coord": {
      "lon": -64.460152,
      "lat": -31.313129
    }
  },
  {
    "id": 3865424,
    "name": "Arroyito",
    "country": "AR",
    "coord": {
      "lon": -63.050018,
      "lat": -31.420219
    }
  },
  {
    "id": 3865281,
    "name": "Ataliva",
    "country": "AR",
    "coord": {
      "lon": -61.430141,
      "lat": -30.996759
    }
  },
  {
    "id": 3866905,
    "name": "Agrelo",
    "country": "AR",
    "coord": {
      "lon": -68.88694,
      "lat": -33.118519
    }
  },
  {
    "id": 3436077,
    "name": "Belgrano",
    "country": "AR",
    "coord": {
      "lon": -58.45829,
      "lat": -34.562698
    }
  },
  {
    "id": 3436099,
    "name": "Basavilbaso",
    "country": "AR",
    "coord": {
      "lon": -58.878578,
      "lat": -32.372131
    }
  },
  {
    "id": 3834402,
    "name": "Departamento de Tilcara",
    "country": "AR",
    "coord": {
      "lon": -65.333328,
      "lat": -23.5
    }
  },
  {
    "id": 3862086,
    "name": "Cerrillos",
    "country": "AR",
    "coord": {
      "lon": -65.487061,
      "lat": -24.898331
    }
  },
  {
    "id": 3862084,
    "name": "Departamento de Cerrillos",
    "country": "AR",
    "coord": {
      "lon": -65.416672,
      "lat": -25
    }
  },
  {
    "id": 3859574,
    "name": "Curtiembre",
    "country": "AR",
    "coord": {
      "lon": -60.16777,
      "lat": -31.46221
    }
  },
  {
    "id": 3861445,
    "name": "Chilecito",
    "country": "AR",
    "coord": {
      "lon": -67.497398,
      "lat": -29.161949
    }
  },
  {
    "id": 3861443,
    "name": "Departamento de Chilecito",
    "country": "AR",
    "coord": {
      "lon": -67.5,
      "lat": -29.41667
    }
  },
  {
    "id": 3862144,
    "name": "Centenario",
    "country": "AR",
    "coord": {
      "lon": -68.139977,
      "lat": -38.804329
    }
  },
  {
    "id": 3435966,
    "name": "Bovril",
    "country": "AR",
    "coord": {
      "lon": -59.445122,
      "lat": -31.343109
    }
  },
  {
    "id": 3862373,
    "name": "Casbas",
    "country": "AR",
    "coord": {
      "lon": -62.504082,
      "lat": -36.759399
    }
  },
  {
    "id": 3436109,
    "name": "Barrio Norte",
    "country": "AR",
    "coord": {
      "lon": -58.400002,
      "lat": -34.583328
    }
  },
  {
    "id": 3839996,
    "name": "Departamento de Punilla",
    "country": "AR",
    "coord": {
      "lon": -64.666672,
      "lat": -31.16667
    }
  },
  {
    "id": 3862251,
    "name": "Catrilo",
    "country": "AR",
    "coord": {
      "lon": -63.42168,
      "lat": -36.405979
    }
  },
  {
    "id": 3865430,
    "name": "Arribeños",
    "country": "AR",
    "coord": {
      "lon": -61.35466,
      "lat": -34.207741
    }
  },
  {
    "id": 3854499,
    "name": "Departamento de Guasayán",
    "country": "AR",
    "coord": {
      "lon": -64.833328,
      "lat": -28
    }
  },
  {
    "id": 3838796,
    "name": "Departamento de Río Segundo",
    "country": "AR",
    "coord": {
      "lon": -63.5,
      "lat": -31.75
    }
  },
  {
    "id": 3836985,
    "name": "Departamento de San Martín",
    "country": "AR",
    "coord": {
      "lon": -68.25,
      "lat": -31.5
    }
  },
  {
    "id": 3860466,
    "name": "Comandante Luis Piedra Buena",
    "country": "AR",
    "coord": {
      "lon": -68.914673,
      "lat": -49.98513
    }
  },
  {
    "id": 3862945,
    "name": "Cañada Rosquín",
    "country": "AR",
    "coord": {
      "lon": -61.6007,
      "lat": -32.053669
    }
  },
  {
    "id": 3864888,
    "name": "Balnearia",
    "country": "AR",
    "coord": {
      "lon": -62.667332,
      "lat": -31.008801
    }
  },
  {
    "id": 3837821,
    "name": "Departamento de San Cristóbal",
    "country": "AR",
    "coord": {
      "lon": -61.333328,
      "lat": -30.33333
    }
  },
  {
    "id": 3844209,
    "name": "Departamento de Minas",
    "country": "AR",
    "coord": {
      "lon": -65.333328,
      "lat": -31
    }
  },
  {
    "id": 3861966,
    "name": "Cervantes",
    "country": "AR",
    "coord": {
      "lon": -67.383331,
      "lat": -39.049999
    }
  },
  {
    "id": 3834309,
    "name": "Departamento de Toay",
    "country": "AR",
    "coord": {
      "lon": -64.800003,
      "lat": -36.583328
    }
  },
  {
    "id": 3860811,
    "name": "Colonia Baron",
    "country": "AR",
    "coord": {
      "lon": -63.854038,
      "lat": -36.15152
    }
  },
  {
    "id": 3842418,
    "name": "Departamento de Paclín",
    "country": "AR",
    "coord": {
      "lon": -65.666672,
      "lat": -28.08333
    }
  },
  {
    "id": 3864632,
    "name": "Barrio La Fortuna",
    "country": "AR",
    "coord": {
      "lon": -62.30323,
      "lat": -32.649391
    }
  },
  {
    "id": 3863050,
    "name": "Campo Quijano",
    "country": "AR",
    "coord": {
      "lon": -65.636559,
      "lat": -24.909821
    }
  },
  {
    "id": 3865375,
    "name": "Arrufo",
    "country": "AR",
    "coord": {
      "lon": -61.728619,
      "lat": -30.232809
    }
  },
  {
    "id": 3861002,
    "name": "Clodomira",
    "country": "AR",
    "coord": {
      "lon": -64.131081,
      "lat": -27.5744
    }
  },
  {
    "id": 3862761,
    "name": "Capilla del Monte",
    "country": "AR",
    "coord": {
      "lon": -64.525146,
      "lat": -30.86088
    }
  },
  {
    "id": 3860280,
    "name": "Coquimbito",
    "country": "AR",
    "coord": {
      "lon": -68.75,
      "lat": -32.966671
    }
  },
  {
    "id": 3836188,
    "name": "Departamento de Santa Lucía",
    "country": "AR",
    "coord": {
      "lon": -68.466667,
      "lat": -31.533331
    }
  },
  {
    "id": 3862883,
    "name": "Canals",
    "country": "AR",
    "coord": {
      "lon": -62.889271,
      "lat": -33.565418
    }
  },
  {
    "id": 3866214,
    "name": "Alpachiri",
    "country": "AR",
    "coord": {
      "lon": -63.774448,
      "lat": -37.377041
    }
  },
  {
    "id": 3838563,
    "name": "Departamento de Rosario de la Frontera",
    "country": "AR",
    "coord": {
      "lon": -64.833328,
      "lat": -25.91667
    }
  },
  {
    "id": 3866268,
    "name": "Alicia",
    "country": "AR",
    "coord": {
      "lon": -62.464951,
      "lat": -31.94006
    }
  },
  {
    "id": 3839667,
    "name": "Departamento de Quemú Quemú",
    "country": "AR",
    "coord": {
      "lon": -63.75,
      "lat": -36.25
    }
  },
  {
    "id": 3859034,
    "name": "Egusquiza",
    "country": "AR",
    "coord": {
      "lon": -61.62759,
      "lat": -31.09565
    }
  },
  {
    "id": 3840808,
    "name": "Departamento de Pomán",
    "country": "AR",
    "coord": {
      "lon": -66.416672,
      "lat": -28.25
    }
  },
  {
    "id": 3866000,
    "name": "Alumine",
    "country": "AR",
    "coord": {
      "lon": -70.919701,
      "lat": -39.236858
    }
  },
  {
    "id": 3865999,
    "name": "Departamento de Aluminé",
    "country": "AR",
    "coord": {
      "lon": -71,
      "lat": -39.166672
    }
  },
  {
    "id": 3860365,
    "name": "Conesa",
    "country": "AR",
    "coord": {
      "lon": -60.354279,
      "lat": -33.594341
    }
  },
  {
    "id": 3861416,
    "name": "Chimbas",
    "country": "AR",
    "coord": {
      "lon": -68.533333,
      "lat": -31.48333
    }
  },
  {
    "id": 3861415,
    "name": "Departamento de Chimbas",
    "country": "AR",
    "coord": {
      "lon": -68.533333,
      "lat": -31.466669
    }
  },
  {
    "id": 3861958,
    "name": "Cevil Redondo",
    "country": "AR",
    "coord": {
      "lon": -65.283333,
      "lat": -26.783331
    }
  },
  {
    "id": 3859409,
    "name": "Devoto",
    "country": "AR",
    "coord": {
      "lon": -62.306339,
      "lat": -31.40431
    }
  },
  {
    "id": 3866237,
    "name": "Almafuerte",
    "country": "AR",
    "coord": {
      "lon": -64.255592,
      "lat": -32.192959
    }
  },
  {
    "id": 3861869,
    "name": "Chacras de Coria",
    "country": "AR",
    "coord": {
      "lon": -68.866669,
      "lat": -33
    }
  },
  {
    "id": 3862100,
    "name": "Ceres",
    "country": "AR",
    "coord": {
      "lon": -61.945042,
      "lat": -29.881001
    }
  },
  {
    "id": 3430597,
    "name": "Departamento de Monte Caseros",
    "country": "AR",
    "coord": {
      "lon": -57.833328,
      "lat": -30.25
    }
  },
  {
    "id": 3842876,
    "name": "Departamento de Nueve de Julio",
    "country": "AR",
    "coord": {
      "lon": -68.416672,
      "lat": -31.66667
    }
  },
  {
    "id": 3436397,
    "name": "Almagro",
    "country": "AR",
    "coord": {
      "lon": -58.416672,
      "lat": -34.599998
    }
  },
  {
    "id": 3866465,
    "name": "Aimogasta",
    "country": "AR",
    "coord": {
      "lon": -66.805878,
      "lat": -28.5609
    }
  },
  {
    "id": 3435448,
    "name": "Chascomús",
    "country": "AR",
    "coord": {
      "lon": -58.008091,
      "lat": -35.572971
    }
  },
  {
    "id": 3436062,
    "name": "Bella Vista",
    "country": "AR",
    "coord": {
      "lon": -59.040089,
      "lat": -28.50918
    }
  },
  {
    "id": 3436058,
    "name": "Departamento de Bella Vista",
    "country": "AR",
    "coord": {
      "lon": -58.833328,
      "lat": -28.5
    }
  },
  {
    "id": 3859278,
    "name": "Dolavon",
    "country": "AR",
    "coord": {
      "lon": -65.699997,
      "lat": -43.299999
    }
  },
  {
    "id": 3866985,
    "name": "Acebal",
    "country": "AR",
    "coord": {
      "lon": -60.836441,
      "lat": -33.243092
    }
  },
  {
    "id": 3865289,
    "name": "Atahona",
    "country": "AR",
    "coord": {
      "lon": -65.287163,
      "lat": -27.41737
    }
  },
  {
    "id": 3843802,
    "name": "Departamento de Monteros",
    "country": "AR",
    "coord": {
      "lon": -65.583328,
      "lat": -27.16667
    }
  },
  {
    "id": 3436150,
    "name": "Baradero",
    "country": "AR",
    "coord": {
      "lon": -59.508072,
      "lat": -33.81105
    }
  },
  {
    "id": 3859036,
    "name": "Eduardo Castex",
    "country": "AR",
    "coord": {
      "lon": -64.294479,
      "lat": -35.915009
    }
  },
  {
    "id": 3862736,
    "name": "Capitán Castro",
    "country": "AR",
    "coord": {
      "lon": -62.2243,
      "lat": -35.9119
    }
  },
  {
    "id": 3435690,
    "name": "Capitán Sarmiento",
    "country": "AR",
    "coord": {
      "lon": -59.789871,
      "lat": -34.172691
    }
  },
  {
    "id": 7535637,
    "name": "Avellaneda",
    "country": "AR",
    "coord": {
      "lon": -58.367439,
      "lat": -34.660179
    }
  },
  {
    "id": 3435644,
    "name": "Carmen de Areco",
    "country": "AR",
    "coord": {
      "lon": -59.822788,
      "lat": -34.375332
    }
  },
  {
    "id": 3435257,
    "name": "Constitución",
    "country": "AR",
    "coord": {
      "lon": -58.38633,
      "lat": -34.625931
    }
  },
  {
    "id": 3428973,
    "name": "Departamento de San Javier",
    "country": "AR",
    "coord": {
      "lon": -59.916672,
      "lat": -30.33333
    }
  },
  {
    "id": 3846632,
    "name": "Departamento de Loncopué",
    "country": "AR",
    "coord": {
      "lon": -70.333328,
      "lat": -38.083328
    }
  },
  {
    "id": 3861595,
    "name": "Chazon",
    "country": "AR",
    "coord": {
      "lon": -63.276569,
      "lat": -33.07872
    }
  },
  {
    "id": 3862138,
    "name": "Centeno",
    "country": "AR",
    "coord": {
      "lon": -61.411221,
      "lat": -32.296879
    }
  },
  {
    "id": 3429014,
    "name": "Departamento de San Ignacio",
    "country": "AR",
    "coord": {
      "lon": -55.333328,
      "lat": -27.25
    }
  },
  {
    "id": 3859828,
    "name": "Cruz del Eje",
    "country": "AR",
    "coord": {
      "lon": -64.803871,
      "lat": -30.72644
    }
  },
  {
    "id": 3859827,
    "name": "Departamento de Cruz del Eje",
    "country": "AR",
    "coord": {
      "lon": -65,
      "lat": -30.75
    }
  },
  {
    "id": 3860816,
    "name": "Colonia Alpina",
    "country": "AR",
    "coord": {
      "lon": -62.103779,
      "lat": -30.05954
    }
  },
  {
    "id": 3860455,
    "name": "Comedero",
    "country": "AR",
    "coord": {
      "lon": -65.584969,
      "lat": -28.9175
    }
  },
  {
    "id": 3838154,
    "name": "Departamento de San Alberto",
    "country": "AR",
    "coord": {
      "lon": -65.25,
      "lat": -31.75
    }
  },
  {
    "id": 3862525,
    "name": "Carreta Quebrada",
    "country": "AR",
    "coord": {
      "lon": -64.180779,
      "lat": -31.157721
    }
  },
  {
    "id": 3862760,
    "name": "Capilla de los Remedios",
    "country": "AR",
    "coord": {
      "lon": -63.831779,
      "lat": -31.430309
    }
  },
  {
    "id": 3860417,
    "name": "Conchas",
    "country": "AR",
    "coord": {
      "lon": -64.964111,
      "lat": -25.477409
    }
  },
  {
    "id": 3430103,
    "name": "Departamento de Paso de los Libres",
    "country": "AR",
    "coord": {
      "lon": -57.25,
      "lat": -29.66667
    }
  },
  {
    "id": 3436134,
    "name": "Barracas",
    "country": "AR",
    "coord": {
      "lon": -58.383411,
      "lat": -34.649658
    }
  },
  {
    "id": 3862320,
    "name": "Castelli",
    "country": "AR",
    "coord": {
      "lon": -60.619469,
      "lat": -25.946791
    }
  },
  {
    "id": 3859833,
    "name": "Cruz Chica",
    "country": "AR",
    "coord": {
      "lon": -64.483788,
      "lat": -30.96497
    }
  },
  {
    "id": 3861956,
    "name": "Chabás",
    "country": "AR",
    "coord": {
      "lon": -61.357559,
      "lat": -33.244579
    }
  },
  {
    "id": 3860179,
    "name": "Coronel Moldes",
    "country": "AR",
    "coord": {
      "lon": -65.479027,
      "lat": -25.27994
    }
  },
  {
    "id": 3864185,
    "name": "Blanca Grande",
    "country": "AR",
    "coord": {
      "lon": -60.883331,
      "lat": -36.533329
    }
  },
  {
    "id": 3862395,
    "name": "Casalegno",
    "country": "AR",
    "coord": {
      "lon": -61.126209,
      "lat": -32.262329
    }
  },
  {
    "id": 3859749,
    "name": "Cuchi Corral",
    "country": "AR",
    "coord": {
      "lon": -64.57518,
      "lat": -30.974819
    }
  },
  {
    "id": 3860199,
    "name": "Coronel Dorrego",
    "country": "AR",
    "coord": {
      "lon": -61.287319,
      "lat": -38.71867
    }
  },
  {
    "id": 3861828,
    "name": "Challacó",
    "country": "AR",
    "coord": {
      "lon": -68.96489,
      "lat": -38.96859
    }
  },
  {
    "id": 3853966,
    "name": "Departamento de Humahuaca",
    "country": "AR",
    "coord": {
      "lon": -65.333328,
      "lat": -23.08333
    }
  },
  {
    "id": 3862338,
    "name": "Caspi Corral",
    "country": "AR",
    "coord": {
      "lon": -63.529419,
      "lat": -27.38242
    }
  },
  {
    "id": 3866356,
    "name": "Alejandro Roca",
    "country": "AR",
    "coord": {
      "lon": -63.718491,
      "lat": -33.353691
    }
  },
  {
    "id": 3435103,
    "name": "Curuzu Cuatia",
    "country": "AR",
    "coord": {
      "lon": -58.0546,
      "lat": -29.79171
    }
  },
  {
    "id": 3435506,
    "name": "Chacarita",
    "country": "AR",
    "coord": {
      "lon": -58.452499,
      "lat": -34.587009
    }
  },
  {
    "id": 3435910,
    "name": "Buenos Aires",
    "country": "AR",
    "coord": {
      "lon": -58.377232,
      "lat": -34.613152
    }
  },
  {
    "id": 3436004,
    "name": "Boca",
    "country": "AR",
    "coord": {
      "lon": -58.36298,
      "lat": -34.634129
    }
  },
  {
    "id": 3435021,
    "name": "Don Cristóbal",
    "country": "AR",
    "coord": {
      "lon": -59.993778,
      "lat": -32.071201
    }
  },
  {
    "id": 3861217,
    "name": "Chumbicha",
    "country": "AR",
    "coord": {
      "lon": -66.235001,
      "lat": -28.8543
    }
  },
  {
    "id": 3860209,
    "name": "Coronel Arnold",
    "country": "AR",
    "coord": {
      "lon": -60.965881,
      "lat": -33.105042
    }
  },
  {
    "id": 3862101,
    "name": "Cereales",
    "country": "AR",
    "coord": {
      "lon": -63.85535,
      "lat": -36.813412
    }
  },
  {
    "id": 3860755,
    "name": "Colonia Margarita",
    "country": "AR",
    "coord": {
      "lon": -61.64592,
      "lat": -31.685801
    }
  },
  {
    "id": 3862575,
    "name": "Carnerillo",
    "country": "AR",
    "coord": {
      "lon": -64.021751,
      "lat": -32.9137
    }
  },
  {
    "id": 3860766,
    "name": "Colonia La Brava",
    "country": "AR",
    "coord": {
      "lon": -60.142841,
      "lat": -30.453699
    }
  },
  {
    "id": 3866389,
    "name": "Aldea Jacobi",
    "country": "AR",
    "coord": {
      "lon": -60.294189,
      "lat": -32.061619
    }
  },
  {
    "id": 3862222,
    "name": "Cavanagh",
    "country": "AR",
    "coord": {
      "lon": -62.338879,
      "lat": -33.476059
    }
  },
  {
    "id": 3864830,
    "name": "Banderaló",
    "country": "AR",
    "coord": {
      "lon": -63.375561,
      "lat": -35.013069
    }
  },
  {
    "id": 3860847,
    "name": "Collún-Có",
    "country": "AR",
    "coord": {
      "lon": -71.20137,
      "lat": -39.969551
    }
  },
  {
    "id": 3860059,
    "name": "Correa",
    "country": "AR",
    "coord": {
      "lon": -61.254742,
      "lat": -32.849159
    }
  },
  {
    "id": 3863596,
    "name": "Cabildo",
    "country": "AR",
    "coord": {
      "lon": -61.89542,
      "lat": -38.484211
    }
  },
  {
    "id": 3832131,
    "name": "Departamento de Zapala",
    "country": "AR",
    "coord": {
      "lon": -69.833328,
      "lat": -39
    }
  },
  {
    "id": 3858918,
    "name": "El Amparo",
    "country": "AR",
    "coord": {
      "lon": -66.150002,
      "lat": -33.183331
    }
  },
  {
    "id": 3860825,
    "name": "Departamento de Colón",
    "country": "AR",
    "coord": {
      "lon": -64.166672,
      "lat": -31.16667
    }
  },
  {
    "id": 3858553,
    "name": "El Carril",
    "country": "AR",
    "coord": {
      "lon": -65.491737,
      "lat": -25.0741
    }
  },
  {
    "id": 3859000,
    "name": "El Aguilar",
    "country": "AR",
    "coord": {
      "lon": -65.692131,
      "lat": -23.225821
    }
  },
  {
    "id": 3859296,
    "name": "Doblas",
    "country": "AR",
    "coord": {
      "lon": -64.011833,
      "lat": -37.14967
    }
  },
  {
    "id": 3859521,
    "name": "Darwin",
    "country": "AR",
    "coord": {
      "lon": -65.76667,
      "lat": -39.200001
    }
  },
  {
    "id": 3859974,
    "name": "Corzuela",
    "country": "AR",
    "coord": {
      "lon": -60.96928,
      "lat": -26.953739
    }
  },
  {
    "id": 3860079,
    "name": "Corralito",
    "country": "AR",
    "coord": {
      "lon": -64.192162,
      "lat": -32.02462
    }
  },
  {
    "id": 3860178,
    "name": "Coronel Moldes",
    "country": "AR",
    "coord": {
      "lon": -64.597107,
      "lat": -33.6227
    }
  },
  {
    "id": 3860206,
    "name": "Coronel Belisle",
    "country": "AR",
    "coord": {
      "lon": -65.98333,
      "lat": -39.183331
    }
  },
  {
    "id": 3860475,
    "name": "Comallo",
    "country": "AR",
    "coord": {
      "lon": -70.267838,
      "lat": -41.02993
    }
  },
  {
    "id": 3860730,
    "name": "Colonia San Bartolome",
    "country": "AR",
    "coord": {
      "lon": -62.724361,
      "lat": -31.5278
    }
  },
  {
    "id": 3860791,
    "name": "Colonia Dora",
    "country": "AR",
    "coord": {
      "lon": -62.950001,
      "lat": -28.6
    }
  },
  {
    "id": 3861262,
    "name": "Chos Malal",
    "country": "AR",
    "coord": {
      "lon": -70.270851,
      "lat": -37.37809
    }
  },
  {
    "id": 3861297,
    "name": "Chorotis",
    "country": "AR",
    "coord": {
      "lon": -61.399818,
      "lat": -27.915779
    }
  },
  {
    "id": 3861405,
    "name": "Chimpay",
    "country": "AR",
    "coord": {
      "lon": -66.142357,
      "lat": -39.164822
    }
  },
  {
    "id": 3862293,
    "name": "Castro Barros",
    "country": "AR",
    "coord": {
      "lon": -65.726959,
      "lat": -30.579519
    }
  },
  {
    "id": 3862515,
    "name": "Carrilobo",
    "country": "AR",
    "coord": {
      "lon": -63.117161,
      "lat": -31.872959
    }
  },
  {
    "id": 3862771,
    "name": "Departamento de Capayán",
    "country": "AR",
    "coord": {
      "lon": -66,
      "lat": -28.83333
    }
  },
  {
    "id": 3862772,
    "name": "Capayan",
    "country": "AR",
    "coord": {
      "lon": -66.05024,
      "lat": -28.761049
    }
  },
  {
    "id": 3862832,
    "name": "Candelaria",
    "country": "AR",
    "coord": {
      "lon": -65.824768,
      "lat": -32.06036
    }
  },
  {
    "id": 3862971,
    "name": "Canada de Luque",
    "country": "AR",
    "coord": {
      "lon": -63.723759,
      "lat": -30.73341
    }
  },
  {
    "id": 3863095,
    "name": "Campo Largo",
    "country": "AR",
    "coord": {
      "lon": -60.842152,
      "lat": -26.80077
    }
  },
  {
    "id": 3863136,
    "name": "Campo Gallo",
    "country": "AR",
    "coord": {
      "lon": -62.849998,
      "lat": -26.58333
    }
  },
  {
    "id": 3863327,
    "name": "Camarones",
    "country": "AR",
    "coord": {
      "lon": -65.709938,
      "lat": -44.797089
    }
  },
  {
    "id": 3863366,
    "name": "Calilegua",
    "country": "AR",
    "coord": {
      "lon": -64.77002,
      "lat": -23.77368
    }
  },
  {
    "id": 3863491,
    "name": "Caimancito",
    "country": "AR",
    "coord": {
      "lon": -64.593697,
      "lat": -23.7407
    }
  },
  {
    "id": 3863554,
    "name": "Departamento de Cachí",
    "country": "AR",
    "coord": {
      "lon": -66.185417,
      "lat": -25.09741
    }
  },
  {
    "id": 3863557,
    "name": "Cachi",
    "country": "AR",
    "coord": {
      "lon": -66.165192,
      "lat": -25.120331
    }
  },
  {
    "id": 3863663,
    "name": "Buta Ranquil",
    "country": "AR",
    "coord": {
      "lon": -69.877129,
      "lat": -37.052219
    }
  },
  {
    "id": 3863700,
    "name": "Departamento de Burruyacú",
    "country": "AR",
    "coord": {
      "lon": -64.916672,
      "lat": -26.5
    }
  },
  {
    "id": 3863701,
    "name": "Burruyacu",
    "country": "AR",
    "coord": {
      "lon": -64.742058,
      "lat": -26.49918
    }
  },
  {
    "id": 3863814,
    "name": "Buena Esperanza",
    "country": "AR",
    "coord": {
      "lon": -65.253799,
      "lat": -34.75647
    }
  },
  {
    "id": 3863821,
    "name": "Buchardo",
    "country": "AR",
    "coord": {
      "lon": -63.509201,
      "lat": -34.72263
    }
  },
  {
    "id": 3864283,
    "name": "Bernasconi",
    "country": "AR",
    "coord": {
      "lon": -63.742401,
      "lat": -37.904591
    }
  },
  {
    "id": 3864729,
    "name": "Barrancas",
    "country": "AR",
    "coord": {
      "lon": -69.916672,
      "lat": -36.816669
    }
  },
  {
    "id": 3865186,
    "name": "Avia Terai",
    "country": "AR",
    "coord": {
      "lon": -60.729198,
      "lat": -26.68532
    }
  },
  {
    "id": 3865578,
    "name": "Departamento de Arauco",
    "country": "AR",
    "coord": {
      "lon": -66.833328,
      "lat": -28.5
    }
  },
  {
    "id": 3865579,
    "name": "Arauco",
    "country": "AR",
    "coord": {
      "lon": -66.79438,
      "lat": -28.5805
    }
  },
  {
    "id": 3865580,
    "name": "Arata",
    "country": "AR",
    "coord": {
      "lon": -64.356209,
      "lat": -35.63895
    }
  },
  {
    "id": 3865585,
    "name": "Aranguren",
    "country": "AR",
    "coord": {
      "lon": -60.161072,
      "lat": -32.242519
    }
  },
  {
    "id": 3865605,
    "name": "Apolinario Saravia",
    "country": "AR",
    "coord": {
      "lon": -63.99535,
      "lat": -24.43276
    }
  },
  {
    "id": 3865801,
    "name": "Departamento de Andalgalá",
    "country": "AR",
    "coord": {
      "lon": -66.466667,
      "lat": -27.58333
    }
  },
  {
    "id": 3865802,
    "name": "Andalgala",
    "country": "AR",
    "coord": {
      "lon": -66.31646,
      "lat": -27.581949
    }
  },
  {
    "id": 3865803,
    "name": "Andacollo",
    "country": "AR",
    "coord": {
      "lon": -70.669121,
      "lat": -37.179451
    }
  },
  {
    "id": 3865829,
    "name": "Departamento de Ancasti",
    "country": "AR",
    "coord": {
      "lon": -65.5,
      "lat": -29
    }
  },
  {
    "id": 3865830,
    "name": "Ancasti",
    "country": "AR",
    "coord": {
      "lon": -65.50145,
      "lat": -28.812469
    }
  },
  {
    "id": 3866028,
    "name": "Altos de Chipion",
    "country": "AR",
    "coord": {
      "lon": -62.337269,
      "lat": -30.9559
    }
  },
  {
    "id": 3866161,
    "name": "Alta Italia",
    "country": "AR",
    "coord": {
      "lon": -64.11496,
      "lat": -35.3335
    }
  },
  {
    "id": 3866353,
    "name": "Alejo Ledesma",
    "country": "AR",
    "coord": {
      "lon": -62.623039,
      "lat": -33.60643
    }
  },
  {
    "id": 3867009,
    "name": "Abra Pampa",
    "country": "AR",
    "coord": {
      "lon": -65.696968,
      "lat": -22.72049
    }
  },
  {
    "id": 6942842,
    "name": "Bella Italia",
    "country": "AR",
    "coord": {
      "lon": -61.423962,
      "lat": -31.27268
    }
  },
  {
    "id": 7116865,
    "name": "Carilo",
    "country": "AR",
    "coord": {
      "lon": -56.891331,
      "lat": -37.165241
    }
  },
  {
    "id": 3435874,
    "name": "Caballito",
    "country": "AR",
    "coord": {
      "lon": -58.44104,
      "lat": -34.622639
    }
  },
  {
    "id": 3436048,
    "name": "Benavídez",
    "country": "AR",
    "coord": {
      "lon": -58.701389,
      "lat": -34.411301
    }
  },
  {
    "id": 7304383,
    "name": "Cuesta Blanca",
    "country": "AR",
    "coord": {
      "lon": -64.571503,
      "lat": -31.48658
    }
  },
  {
    "id": 3859435,
    "name": "Desmochado Afuera",
    "country": "AR",
    "coord": {
      "lon": -61.26667,
      "lat": -33
    }
  },
  {
    "id": 3864286,
    "name": "Bernardo de Irigoyen",
    "country": "AR",
    "coord": {
      "lon": -61.157051,
      "lat": -32.168129
    }
  },
  {
    "id": 3866029,
    "name": "Alto San Pedro",
    "country": "AR",
    "coord": {
      "lon": -64.478333,
      "lat": -31.047331
    }
  },
  {
    "id": 3865436,
    "name": "Arrecifes",
    "country": "AR",
    "coord": {
      "lon": -60.103569,
      "lat": -34.0639
    }
  },
  {
    "id": 3435551,
    "name": "Centinela del Mar",
    "country": "AR",
    "coord": {
      "lon": -58.221748,
      "lat": -38.433159
    }
  },
  {
    "id": 3428569,
    "name": "Departamento de San Pedro",
    "country": "AR",
    "coord": {
      "lon": -54,
      "lat": -26.66667
    }
  },
  {
    "id": 3429948,
    "name": "Departamento de Pirané",
    "country": "AR",
    "coord": {
      "lon": -59.166672,
      "lat": -25.66667
    }
  },
  {
    "id": 3837122,
    "name": "Departamento de San Justo",
    "country": "AR",
    "coord": {
      "lon": -60.5,
      "lat": -30.66667
    }
  },
  {
    "id": 3436237,
    "name": "Atucha",
    "country": "AR",
    "coord": {
      "lon": -59.285011,
      "lat": -33.979969
    }
  },
  {
    "id": 3838873,
    "name": "Departamento de Río Cuarto",
    "country": "AR",
    "coord": {
      "lon": -64.5,
      "lat": -33.333328
    }
  },
  {
    "id": 3866424,
    "name": "Departamento de Albardón",
    "country": "AR",
    "coord": {
      "lon": -68.416672,
      "lat": -31.283331
    }
  },
  {
    "id": 3865483,
    "name": "Argentine Republic",
    "country": "AR",
    "coord": {
      "lon": -64,
      "lat": -34
    }
  },
  {
    "id": 3867002,
    "name": "Abra Rica",
    "country": "AR",
    "coord": {
      "lon": -64.883331,
      "lat": -27.133329
    }
  },
  {
    "id": 3435055,
    "name": "Dique Luján",
    "country": "AR",
    "coord": {
      "lon": -58.68792,
      "lat": -34.357189
    }
  },
  {
    "id": 3865485,
    "name": "Arequito",
    "country": "AR",
    "coord": {
      "lon": -61.471561,
      "lat": -33.145519
    }
  },
  {
    "id": 3841892,
    "name": "Departamento de Paso de Indios",
    "country": "AR",
    "coord": {
      "lon": -68.833328,
      "lat": -44
    }
  },
  {
    "id": 3862981,
    "name": "Canada de Gomez",
    "country": "AR",
    "coord": {
      "lon": -61.394932,
      "lat": -32.81636
    }
  },
  {
    "id": 3863692,
    "name": "Bustinza",
    "country": "AR",
    "coord": {
      "lon": -61.290291,
      "lat": -32.73909
    }
  },
  {
    "id": 3435364,
    "name": "Clorinda",
    "country": "AR",
    "coord": {
      "lon": -57.71851,
      "lat": -25.284809
    }
  },
  {
    "id": 3859279,
    "name": "Doctor Rogelio Cortizo",
    "country": "AR",
    "coord": {
      "lon": -65.033333,
      "lat": -40.73333
    }
  },
  {
    "id": 3861016,
    "name": "Clason",
    "country": "AR",
    "coord": {
      "lon": -61.291061,
      "lat": -32.461418
    }
  },
  {
    "id": 3860217,
    "name": "Coronda",
    "country": "AR",
    "coord": {
      "lon": -60.919819,
      "lat": -31.97263
    }
  },
  {
    "id": 3866496,
    "name": "Aguilares",
    "country": "AR",
    "coord": {
      "lon": -65.614273,
      "lat": -27.4338
    }
  },
  {
    "id": 3435189,
    "name": "Cristiano Muerto",
    "country": "AR",
    "coord": {
      "lon": -59.604549,
      "lat": -38.647781
    }
  },
  {
    "id": 3862634,
    "name": "Carhué",
    "country": "AR",
    "coord": {
      "lon": -62.757919,
      "lat": -37.176682
    }
  },
  {
    "id": 3860407,
    "name": "Condarco",
    "country": "AR",
    "coord": {
      "lon": -63.066669,
      "lat": -35.26667
    }
  },
  {
    "id": 3864285,
    "name": "Bernardo Larroude",
    "country": "AR",
    "coord": {
      "lon": -63.582531,
      "lat": -35.02449
    }
  },
  {
    "id": 3862372,
    "name": "Cascada",
    "country": "AR",
    "coord": {
      "lon": -62.299671,
      "lat": -37.293571
    }
  },
  {
    "id": 3435857,
    "name": "Cacharí",
    "country": "AR",
    "coord": {
      "lon": -59.501961,
      "lat": -36.380299
    }
  },
  {
    "id": 3858765,
    "name": "El Bolson",
    "country": "AR",
    "coord": {
      "lon": -71.51667,
      "lat": -41.966671
    }
  },
  {
    "id": 3435038,
    "name": "Dolores",
    "country": "AR",
    "coord": {
      "lon": -57.67918,
      "lat": -36.313221
    }
  },
  {
    "id": 3435029,
    "name": "Domselaar",
    "country": "AR",
    "coord": {
      "lon": -58.285542,
      "lat": -35.072231
    }
  },
  {
    "id": 3861704,
    "name": "Chapelco",
    "country": "AR",
    "coord": {
      "lon": -71.21769,
      "lat": -40.126621
    }
  },
  {
    "id": 3435073,
    "name": "Diamante",
    "country": "AR",
    "coord": {
      "lon": -58.416672,
      "lat": -34.666672
    }
  },
  {
    "id": 3860168,
    "name": "Coronel Rodríguez",
    "country": "AR",
    "coord": {
      "lon": -61.245762,
      "lat": -31.700781
    }
  },
  {
    "id": 3864251,
    "name": "Bigand",
    "country": "AR",
    "coord": {
      "lon": -61.184681,
      "lat": -33.372799
    }
  },
  {
    "id": 3862537,
    "name": "Carreras",
    "country": "AR",
    "coord": {
      "lon": -61.309818,
      "lat": -33.597038
    }
  },
  {
    "id": 3866062,
    "name": "Alto del Salvador",
    "country": "AR",
    "coord": {
      "lon": -68.366669,
      "lat": -33.033329
    }
  },
  {
    "id": 3863419,
    "name": "Calchaqui",
    "country": "AR",
    "coord": {
      "lon": -60.286961,
      "lat": -29.887671
    }
  },
  {
    "id": 3859538,
    "name": "Daireaux",
    "country": "AR",
    "coord": {
      "lon": -61.75,
      "lat": -36.599998
    }
  },
  {
    "id": 3435713,
    "name": "Cañuelas",
    "country": "AR",
    "coord": {
      "lon": -58.760609,
      "lat": -35.051842
    }
  },
  {
    "id": 3863314,
    "name": "Camilo Aldao",
    "country": "AR",
    "coord": {
      "lon": -62.094528,
      "lat": -33.127449
    }
  },
  {
    "id": 3862584,
    "name": "Carmen del Sauce",
    "country": "AR",
    "coord": {
      "lon": -60.811161,
      "lat": -33.236
    }
  },
  {
    "id": 3436249,
    "name": "Arturo Seguí",
    "country": "AR",
    "coord": {
      "lon": -58.12579,
      "lat": -34.889519
    }
  },
  {
    "id": 3859437,
    "name": "Desiderio Tello",
    "country": "AR",
    "coord": {
      "lon": -66.315483,
      "lat": -31.21154
    }
  },
  {
    "id": 3861824,
    "name": "Chamical",
    "country": "AR",
    "coord": {
      "lon": -66.313988,
      "lat": -30.36002
    }
  },
  {
    "id": 3860174,
    "name": "Coronel Pringles",
    "country": "AR",
    "coord": {
      "lon": -61.356152,
      "lat": -37.982948
    }
  },
  {
    "id": 3860721,
    "name": "Colonia San Pedro",
    "country": "AR",
    "coord": {
      "lon": -62.342129,
      "lat": -37.953541
    }
  },
  {
    "id": 3858909,
    "name": "El Aranado",
    "country": "AR",
    "coord": {
      "lon": -62.893219,
      "lat": -31.741199
    }
  },
  {
    "id": 3839792,
    "name": "Departamento de Quebrachos",
    "country": "AR",
    "coord": {
      "lon": -63.333328,
      "lat": -29.33333
    }
  },
  {
    "id": 3858677,
    "name": "El Calafate",
    "country": "AR",
    "coord": {
      "lon": -72.276817,
      "lat": -50.340752
    }
  },
  {
    "id": 3861678,
    "name": "Charata",
    "country": "AR",
    "coord": {
      "lon": -61.18795,
      "lat": -27.21438
    }
  },
  {
    "id": 3861001,
    "name": "Clodomiro Díaz",
    "country": "AR",
    "coord": {
      "lon": -60.799999,
      "lat": -27.616671
    }
  },
  {
    "id": 3861568,
    "name": "Chepes Viejo",
    "country": "AR",
    "coord": {
      "lon": -66.58519,
      "lat": -31.26075
    }
  },
  {
    "id": 3860204,
    "name": "Coronel Charlone",
    "country": "AR",
    "coord": {
      "lon": -63.370312,
      "lat": -34.674789
    }
  },
  {
    "id": 3859512,
    "name": "Dean Funes",
    "country": "AR",
    "coord": {
      "lon": -64.349838,
      "lat": -30.420361
    }
  },
  {
    "id": 3433955,
    "name": "Ciudad Autónoma de Buenos Aires",
    "country": "AR",
    "coord": {
      "lon": -58.450001,
      "lat": -34.599998
    }
  },
  {
    "id": 3859082,
    "name": "Dumesnil",
    "country": "AR",
    "coord": {
      "lon": -64.327888,
      "lat": -31.32198
    }
  },
  {
    "id": 3852288,
    "name": "Departamento de Lácar",
    "country": "AR",
    "coord": {
      "lon": -71.199997,
      "lat": -40.25
    }
  },
  {
    "id": 3861061,
    "name": "Cinco Saltos",
    "country": "AR",
    "coord": {
      "lon": -68.062927,
      "lat": -38.822239
    }
  },
  {
    "id": 3866946,
    "name": "Acosta",
    "country": "AR",
    "coord": {
      "lon": -65.23333,
      "lat": -25.5
    }
  },
  {
    "id": 3866402,
    "name": "Alcorta",
    "country": "AR",
    "coord": {
      "lon": -61.122608,
      "lat": -33.54319
    }
  },
  {
    "id": 3866418,
    "name": "Alberdi",
    "country": "AR",
    "coord": {
      "lon": -60.690578,
      "lat": -32.88987
    }
  },
  {
    "id": 3852292,
    "name": "Departamento de La Capital",
    "country": "AR",
    "coord": {
      "lon": -60.666672,
      "lat": -31.5
    }
  },
  {
    "id": 3435704,
    "name": "Capilla del Señor",
    "country": "AR",
    "coord": {
      "lon": -59.101791,
      "lat": -34.292068
    }
  },
  {
    "id": 3435050,
    "name": "Dock Sud",
    "country": "AR",
    "coord": {
      "lon": -58.366669,
      "lat": -34.633331
    }
  },
  {
    "id": 3436426,
    "name": "Aldo Bonzi",
    "country": "AR",
    "coord": {
      "lon": -58.518959,
      "lat": -34.70657
    }
  },
  {
    "id": 3863980,
    "name": "Bombal",
    "country": "AR",
    "coord": {
      "lon": -61.319939,
      "lat": -33.45686
    }
  },
  {
    "id": 3839303,
    "name": "Departamento de Rawson",
    "country": "AR",
    "coord": {
      "lon": -65,
      "lat": -43.333328
    }
  },
  {
    "id": 3435369,
    "name": "Claypole",
    "country": "AR",
    "coord": {
      "lon": -58.334339,
      "lat": -34.796749
    }
  },
  {
    "id": 3435024,
    "name": "Don Bosco",
    "country": "AR",
    "coord": {
      "lon": -58.292679,
      "lat": -34.701889
    }
  },
  {
    "id": 3435280,
    "name": "Comandante Nicanor Otamendi",
    "country": "AR",
    "coord": {
      "lon": -57.838089,
      "lat": -38.114151
    }
  },
  {
    "id": 3832932,
    "name": "Departamento de Victoria",
    "country": "AR",
    "coord": {
      "lon": -60.333328,
      "lat": -32.666672
    }
  },
  {
    "id": 3864759,
    "name": "Departamento de Bariloche",
    "country": "AR",
    "coord": {
      "lon": -71.5,
      "lat": -41.5
    }
  },
  {
    "id": 3862744,
    "name": "Departamento de Capital",
    "country": "AR",
    "coord": {
      "lon": -64.199997,
      "lat": -31.41667
    }
  },
  {
    "id": 3860259,
    "name": "Cordoba",
    "country": "AR",
    "coord": {
      "lon": -64.181053,
      "lat": -31.4135
    }
  },
  {
    "id": 3866169,
    "name": "Alta Córdoba",
    "country": "AR",
    "coord": {
      "lon": -64.175659,
      "lat": -31.38945
    }
  },
  {
    "id": 3838574,
    "name": "Departamento de Rosario",
    "country": "AR",
    "coord": {
      "lon": -60.75,
      "lat": -33.166672
    }
  },
  {
    "id": 3864364,
    "name": "Bella Vista",
    "country": "AR",
    "coord": {
      "lon": -60.675301,
      "lat": -32.953918
    }
  },
  {
    "id": 3865810,
    "name": "Anchoris",
    "country": "AR",
    "coord": {
      "lon": -68.914658,
      "lat": -33.321129
    }
  },
  {
    "id": 3863887,
    "name": "Bowen",
    "country": "AR",
    "coord": {
      "lon": -67.508987,
      "lat": -34.99889
    }
  },
  {
    "id": 3436159,
    "name": "Bancalari",
    "country": "AR",
    "coord": {
      "lon": -58.600899,
      "lat": -34.476559
    }
  },
  {
    "id": 3435719,
    "name": "Canning",
    "country": "AR",
    "coord": {
      "lon": -58.51054,
      "lat": -34.878342
    }
  },
  {
    "id": 3436430,
    "name": "Aldea San Juan",
    "country": "AR",
    "coord": {
      "lon": -58.768822,
      "lat": -32.69767
    }
  },
  {
    "id": 3436124,
    "name": "Barranqueras",
    "country": "AR",
    "coord": {
      "lon": -58.935791,
      "lat": -27.48299
    }
  },
  {
    "id": 3861528,
    "name": "Chichinales",
    "country": "AR",
    "coord": {
      "lon": -66.927139,
      "lat": -39.115051
    }
  },
  {
    "id": 3864043,
    "name": "Boca del Tigre",
    "country": "AR",
    "coord": {
      "lon": -64.716667,
      "lat": -27.25
    }
  },
  {
    "id": 3859965,
    "name": "Cosquin",
    "country": "AR",
    "coord": {
      "lon": -64.46563,
      "lat": -31.245081
    }
  },
  {
    "id": 3864054,
    "name": "Bobadal",
    "country": "AR",
    "coord": {
      "lon": -64.39576,
      "lat": -26.718809
    }
  },
  {
    "id": 3865449,
    "name": "Armstrong",
    "country": "AR",
    "coord": {
      "lon": -61.602219,
      "lat": -32.78215
    }
  },
  {
    "id": 3435217,
    "name": "Corrientes",
    "country": "AR",
    "coord": {
      "lon": -58.834099,
      "lat": -27.4806
    }
  },
  {
    "id": 3865373,
    "name": "Arteaga",
    "country": "AR",
    "coord": {
      "lon": -61.790039,
      "lat": -33.087879
    }
  },
  {
    "id": 3859384,
    "name": "Diamante",
    "country": "AR",
    "coord": {
      "lon": -60.638359,
      "lat": -32.06641
    }
  },
  {
    "id": 3838725,
    "name": "Departamento de Robles",
    "country": "AR",
    "coord": {
      "lon": -63.916672,
      "lat": -27.83333
    }
  },
  {
    "id": 3859966,
    "name": "Cosme Sud",
    "country": "AR",
    "coord": {
      "lon": -64.116669,
      "lat": -31.883329
    }
  },
  {
    "id": 3435963,
    "name": "Brandsen",
    "country": "AR",
    "coord": {
      "lon": -58.234268,
      "lat": -35.168419
    }
  },
  {
    "id": 3865385,
    "name": "Arroyo Seco",
    "country": "AR",
    "coord": {
      "lon": -60.508629,
      "lat": -33.154888
    }
  },
  {
    "id": 3436152,
    "name": "Banfield",
    "country": "AR",
    "coord": {
      "lon": -58.404099,
      "lat": -34.744709
    }
  },
  {
    "id": 3861039,
    "name": "Ciudad Universitaria",
    "country": "AR",
    "coord": {
      "lon": -65.349998,
      "lat": -26.783331
    }
  },
  {
    "id": 3436033,
    "name": "Bernal",
    "country": "AR",
    "coord": {
      "lon": -58.271801,
      "lat": -34.707279
    }
  },
  {
    "id": 3435417,
    "name": "Chillar",
    "country": "AR",
    "coord": {
      "lon": -59.98436,
      "lat": -37.312328
    }
  },
  {
    "id": 3436079,
    "name": "Belén de Escobar",
    "country": "AR",
    "coord": {
      "lon": -58.793079,
      "lat": -34.349049
    }
  },
  {
    "id": 3862655,
    "name": "Carcarana",
    "country": "AR",
    "coord": {
      "lon": -61.153309,
      "lat": -32.856789
    }
  },
  {
    "id": 3866163,
    "name": "Alta Gracia",
    "country": "AR",
    "coord": {
      "lon": -64.428261,
      "lat": -31.65292
    }
  },
  {
    "id": 3435264,
    "name": "Concepcion del Uruguay",
    "country": "AR",
    "coord": {
      "lon": -58.237221,
      "lat": -32.482491
    }
  },
  {
    "id": 3436434,
    "name": "Aldea Asunción",
    "country": "AR",
    "coord": {
      "lon": -59.239262,
      "lat": -32.821861
    }
  },
  {
    "id": 3866395,
    "name": "Aldea Brava",
    "country": "AR",
    "coord": {
      "lon": -60.581421,
      "lat": -32.117939
    }
  },
  {
    "id": 3864307,
    "name": "Berabevú",
    "country": "AR",
    "coord": {
      "lon": -61.861542,
      "lat": -33.339458
    }
  },
  {
    "id": 3859839,
    "name": "Cruz Alta",
    "country": "AR",
    "coord": {
      "lon": -61.807461,
      "lat": -33.008869
    }
  },
  {
    "id": 3435261,
    "name": "Concordia",
    "country": "AR",
    "coord": {
      "lon": -58.020889,
      "lat": -31.39296
    }
  },
  {
    "id": 3435087,
    "name": "Del Viso",
    "country": "AR",
    "coord": {
      "lon": -58.787811,
      "lat": -34.45013
    }
  },
  {
    "id": 3864331,
    "name": "Bell Ville",
    "country": "AR",
    "coord": {
      "lon": -62.688728,
      "lat": -32.625912
    }
  },
  {
    "id": 3861344,
    "name": "Chivilcoy",
    "country": "AR",
    "coord": {
      "lon": -60.01667,
      "lat": -34.89566
    }
  },
  {
    "id": 3436040,
    "name": "Berisso",
    "country": "AR",
    "coord": {
      "lon": -57.88303,
      "lat": -34.873501
    }
  },
  {
    "id": 3435375,
    "name": "Ciudad General Belgrano",
    "country": "AR",
    "coord": {
      "lon": -58.529789,
      "lat": -34.722961
    }
  },
  {
    "id": 3435376,
    "name": "Ciudadela",
    "country": "AR",
    "coord": {
      "lon": -58.540779,
      "lat": -34.637718
    }
  },
  {
    "id": 3436080,
    "name": "Beccar",
    "country": "AR",
    "coord": {
      "lon": -58.534809,
      "lat": -34.46312
    }
  },
  {
    "id": 3436022,
    "name": "Billinghurst",
    "country": "AR",
    "coord": {
      "lon": -58.58559,
      "lat": -34.579762
    }
  },
  {
    "id": 3435971,
    "name": "Boulogne",
    "country": "AR",
    "coord": {
      "lon": -58.565811,
      "lat": -34.50732
    }
  },
  {
    "id": 3860164,
    "name": "Coronel Suarez",
    "country": "AR",
    "coord": {
      "lon": -61.93343,
      "lat": -37.45467
    }
  },
  {
    "id": 3839281,
    "name": "Departamento de Realicó",
    "country": "AR",
    "coord": {
      "lon": -64.25,
      "lat": -35.25
    }
  },
  {
    "id": 3427426,
    "name": "Departamento de Villaguay",
    "country": "AR",
    "coord": {
      "lon": -59,
      "lat": -31.58333
    }
  },
  {
    "id": 3855061,
    "name": "Departamento de General Roca",
    "country": "AR",
    "coord": {
      "lon": -67.5,
      "lat": -38.5
    }
  },
  {
    "id": 3861056,
    "name": "Cipolletti",
    "country": "AR",
    "coord": {
      "lon": -67.990318,
      "lat": -38.933922
    }
  },
  {
    "id": 3855665,
    "name": "Departamento de Famaillá",
    "country": "AR",
    "coord": {
      "lon": -65.5,
      "lat": -26.91667
    }
  },
  {
    "id": 3433661,
    "name": "Departamento de Gualeguay",
    "country": "AR",
    "coord": {
      "lon": -59.583328,
      "lat": -33
    }
  },
  {
    "id": 3863395,
    "name": "Calderón",
    "country": "AR",
    "coord": {
      "lon": -62.054909,
      "lat": -38.72271
    }
  },
  {
    "id": 3859910,
    "name": "Crámer",
    "country": "AR",
    "coord": {
      "lon": -65.357368,
      "lat": -33.699951
    }
  },
  {
    "id": 3862600,
    "name": "Carlos Tejedor",
    "country": "AR",
    "coord": {
      "lon": -62.421459,
      "lat": -35.392651
    }
  },
  {
    "id": 3436199,
    "name": "Azul",
    "country": "AR",
    "coord": {
      "lon": -59.85854,
      "lat": -36.776981
    }
  },
  {
    "id": 3860431,
    "name": "Concaran",
    "country": "AR",
    "coord": {
      "lon": -65.242699,
      "lat": -32.560089
    }
  },
  {
    "id": 3862254,
    "name": "Catriel",
    "country": "AR",
    "coord": {
      "lon": -67.795601,
      "lat": -37.87907
    }
  },
  {
    "id": 3866417,
    "name": "Departamento de Alberdi",
    "country": "AR",
    "coord": {
      "lon": -62.75,
      "lat": -26.5
    }
  },
  {
    "id": 3859522,
    "name": "Darregueira",
    "country": "AR",
    "coord": {
      "lon": -63.160759,
      "lat": -37.688919
    }
  },
  {
    "id": 3863938,
    "name": "Bordenave",
    "country": "AR",
    "coord": {
      "lon": -63.041199,
      "lat": -37.803421
    }
  },
  {
    "id": 3865884,
    "name": "Amenábar",
    "country": "AR",
    "coord": {
      "lon": -62.421452,
      "lat": -34.133228
    }
  },
  {
    "id": 3435010,
    "name": "Don Torcuato",
    "country": "AR",
    "coord": {
      "lon": -58.639149,
      "lat": -34.496738
    }
  },
  {
    "id": 3864851,
    "name": "Banda del Río Salí",
    "country": "AR",
    "coord": {
      "lon": -65.166672,
      "lat": -26.83333
    }
  },
  {
    "id": 3436388,
    "name": "Alsina",
    "country": "AR",
    "coord": {
      "lon": -59.38866,
      "lat": -33.908981
    }
  },
  {
    "id": 3864419,
    "name": "Belgrano",
    "country": "AR",
    "coord": {
      "lon": -63.933331,
      "lat": -25.883329
    }
  },
  {
    "id": 3841612,
    "name": "Departamento de Pellegrini",
    "country": "AR",
    "coord": {
      "lon": -64.25,
      "lat": -26.16667
    }
  },
  {
    "id": 3859429,
    "name": "Despenaderos",
    "country": "AR",
    "coord": {
      "lon": -64.289886,
      "lat": -31.816259
    }
  },
  {
    "id": 3436177,
    "name": "Balcarce",
    "country": "AR",
    "coord": {
      "lon": -58.255219,
      "lat": -37.846161
    }
  },
  {
    "id": 3859110,
    "name": "Drabble",
    "country": "AR",
    "coord": {
      "lon": -62.76582,
      "lat": -34.920391
    }
  },
  {
    "id": 3860828,
    "name": "Colón",
    "country": "AR",
    "coord": {
      "lon": -61.101101,
      "lat": -33.895119
    }
  },
  {
    "id": 3862351,
    "name": "Casilda",
    "country": "AR",
    "coord": {
      "lon": -61.16806,
      "lat": -33.04417
    }
  },
  {
    "id": 3436521,
    "name": "Abasto",
    "country": "AR",
    "coord": {
      "lon": -58.089218,
      "lat": -34.985149
    }
  },
  {
    "id": 3862738,
    "name": "Capitan Bermudez",
    "country": "AR",
    "coord": {
      "lon": -60.718521,
      "lat": -32.82262
    }
  },
  {
    "id": 3435976,
    "name": "Bosch",
    "country": "AR",
    "coord": {
      "lon": -58.243622,
      "lat": -37.64703
    }
  },
  {
    "id": 3863882,
    "name": "Bragado",
    "country": "AR",
    "coord": {
      "lon": -60.489658,
      "lat": -35.119122
    }
  },
  {
    "id": 3860801,
    "name": "Colonia Caroya",
    "country": "AR",
    "coord": {
      "lon": -64.065193,
      "lat": -31.019779
    }
  },
  {
    "id": 3436221,
    "name": "Ayacucho",
    "country": "AR",
    "coord": {
      "lon": -58.486912,
      "lat": -37.151852
    }
  },
  {
    "id": 3864692,
    "name": "Barraquero",
    "country": "AR",
    "coord": {
      "lon": -68.831177,
      "lat": -32.90559
    }
  },
  {
    "id": 3860443,
    "name": "Comodoro Rivadavia",
    "country": "AR",
    "coord": {
      "lon": -67.5,
      "lat": -45.866669
    }
  },
  {
    "id": 3865086,
    "name": "Bahia Blanca",
    "country": "AR",
    "coord": {
      "lon": -62.27243,
      "lat": -38.719601
    }
  },
  {
    "id": 3860129,
    "name": "Corral de Bustos",
    "country": "AR",
    "coord": {
      "lon": -62.184631,
      "lat": -33.282051
    }
  },
  {
    "id": 3861953,
    "name": "Chacabuco",
    "country": "AR",
    "coord": {
      "lon": -60.473888,
      "lat": -34.64167
    }
  },
  {
    "id": 3436091,
    "name": "Batán",
    "country": "AR",
    "coord": {
      "lon": -57.709671,
      "lat": -38.008499
    }
  },
  {
    "id": 3861329,
    "name": "Choele Choel",
    "country": "AR",
    "coord": {
      "lon": -65.683327,
      "lat": -39.26667
    }
  },
  {
    "id": 3436508,
    "name": "Acassuso",
    "country": "AR",
    "coord": {
      "lon": -58.50177,
      "lat": -34.477058
    }
  },
  {
    "id": 3436311,
    "name": "Apostoles",
    "country": "AR",
    "coord": {
      "lon": -55.753551,
      "lat": -27.914209
    }
  },
  {
    "id": 3436309,
    "name": "Departamento de Apóstoles",
    "country": "AR",
    "coord": {
      "lon": -55.75,
      "lat": -27.91667
    }
  },
  {
    "id": 3859904,
    "name": "Crespo",
    "country": "AR",
    "coord": {
      "lon": -60.30658,
      "lat": -32.028728
    }
  },
  {
    "id": 3866935,
    "name": "Adelia Maria",
    "country": "AR",
    "coord": {
      "lon": -64.020973,
      "lat": -33.631519
    }
  },
  {
    "id": 3838300,
    "name": "Departamento de Salavina",
    "country": "AR",
    "coord": {
      "lon": -63.299999,
      "lat": -28.91667
    }
  },
  {
    "id": 3863430,
    "name": "Departamento de Calamuchita",
    "country": "AR",
    "coord": {
      "lon": -64.583328,
      "lat": -32.25
    }
  },
  {
    "id": 3435810,
    "name": "Campana",
    "country": "AR",
    "coord": {
      "lon": -58.959141,
      "lat": -34.168739
    }
  },
  {
    "id": 3435486,
    "name": "Chajari",
    "country": "AR",
    "coord": {
      "lon": -57.979622,
      "lat": -30.750481
    }
  },
  {
    "id": 3864639,
    "name": "Barrio Comandante Piedrabuena",
    "country": "AR",
    "coord": {
      "lon": -62.092789,
      "lat": -38.884571
    }
  },
  {
    "id": 3863379,
    "name": "Caleta Olivia",
    "country": "AR",
    "coord": {
      "lon": -67.528137,
      "lat": -46.439289
    }
  },
  {
    "id": 3480738,
    "name": "Barrio Esteban Echeverría",
    "country": "AR",
    "coord": {
      "lon": -58.475281,
      "lat": -34.813332
    }
  },
  {
    "id": 3431272,
    "name": "Lomas de Vallejos",
    "country": "AR",
    "coord": {
      "lon": -57.918499,
      "lat": -27.73501
    }
  },
  {
    "id": 3430868,
    "name": "Marcos Paz",
    "country": "AR",
    "coord": {
      "lon": -58.837399,
      "lat": -34.780628
    }
  },
  {
    "id": 3433956,
    "name": "Federal",
    "country": "AR",
    "coord": {
      "lon": -58.78326,
      "lat": -30.954651
    }
  },
  {
    "id": 3433803,
    "name": "General Jose de San Martin",
    "country": "AR",
    "coord": {
      "lon": -59.341579,
      "lat": -26.53743
    }
  },
  {
    "id": 3433753,
    "name": "Gobernador Ingeniero Valentin Virasoro",
    "country": "AR",
    "coord": {
      "lon": -56.033329,
      "lat": -28.049999
    }
  },
  {
    "id": 3433658,
    "name": "Gualeguaychu",
    "country": "AR",
    "coord": {
      "lon": -58.51722,
      "lat": -33.00938
    }
  },
  {
    "id": 3432079,
    "name": "La Paz",
    "country": "AR",
    "coord": {
      "lon": -59.64566,
      "lat": -30.74485
    }
  },
  {
    "id": 3846402,
    "name": "Los Boulevares",
    "country": "AR",
    "coord": {
      "lon": -64.221832,
      "lat": -31.341869
    }
  },
  {
    "id": 3857216,
    "name": "El Plumerillo",
    "country": "AR",
    "coord": {
      "lon": -68.786484,
      "lat": -32.835411
    }
  },
  {
    "id": 3847935,
    "name": "Las Paredes",
    "country": "AR",
    "coord": {
      "lon": -68.461563,
      "lat": -34.56411
    }
  },
  {
    "id": 3845082,
    "name": "Mal Paso",
    "country": "AR",
    "coord": {
      "lon": -64.312477,
      "lat": -27.7377
    }
  },
  {
    "id": 3430992,
    "name": "Luis Guillón",
    "country": "AR",
    "coord": {
      "lon": -58.449471,
      "lat": -34.79882
    }
  },
  {
    "id": 3431366,
    "name": "Libertad",
    "country": "AR",
    "coord": {
      "lon": -58.680099,
      "lat": -34.688911
    }
  },
  {
    "id": 3849769,
    "name": "La Nélida",
    "country": "AR",
    "coord": {
      "lon": -66.383331,
      "lat": -33.26667
    }
  },
  {
    "id": 3432471,
    "name": "Laguna Brava",
    "country": "AR",
    "coord": {
      "lon": -58.716839,
      "lat": -27.49567
    }
  },
  {
    "id": 3433901,
    "name": "Fontana",
    "country": "AR",
    "coord": {
      "lon": -59.023918,
      "lat": -27.418131
    }
  },
  {
    "id": 3855141,
    "name": "General Alvarado",
    "country": "AR",
    "coord": {
      "lon": -65.466667,
      "lat": -24.85
    }
  },
  {
    "id": 3855116,
    "name": "General Enrique Mosconi",
    "country": "AR",
    "coord": {
      "lon": -63.81255,
      "lat": -22.595881
    }
  },
  {
    "id": 3845490,
    "name": "Los Varela",
    "country": "AR",
    "coord": {
      "lon": -65.865501,
      "lat": -27.954821
    }
  },
  {
    "id": 3434261,
    "name": "El Talar",
    "country": "AR",
    "coord": {
      "lon": -58.65086,
      "lat": -34.470901
    }
  },
  {
    "id": 3848950,
    "name": "La Rioja",
    "country": "AR",
    "coord": {
      "lon": -66.85067,
      "lat": -29.411051
    }
  },
  {
    "id": 3433708,
    "name": "Grand Bourg",
    "country": "AR",
    "coord": {
      "lon": -58.72913,
      "lat": -34.482361
    }
  },
  {
    "id": 3854293,
    "name": "Hill Station",
    "country": "AR",
    "coord": {
      "lon": -69.23307,
      "lat": -51.57542
    }
  },
  {
    "id": 3433359,
    "name": "Ituzaingo",
    "country": "AR",
    "coord": {
      "lon": -58.65836,
      "lat": -34.655819
    }
  },
  {
    "id": 3856235,
    "name": "Embalse",
    "country": "AR",
    "coord": {
      "lon": -64.418091,
      "lat": -32.18
    }
  },
  {
    "id": 3855433,
    "name": "Fortín Olavarría",
    "country": "AR",
    "coord": {
      "lon": -63.024288,
      "lat": -35.701759
    }
  },
  {
    "id": 3852125,
    "name": "La Cesira",
    "country": "AR",
    "coord": {
      "lon": -62.972382,
      "lat": -33.951149
    }
  },
  {
    "id": 3433787,
    "name": "General Pacheco",
    "country": "AR",
    "coord": {
      "lon": -58.64296,
      "lat": -34.448818
    }
  },
  {
    "id": 3433715,
    "name": "Goya",
    "country": "AR",
    "coord": {
      "lon": -59.262562,
      "lat": -29.14003
    }
  },
  {
    "id": 3855201,
    "name": "Garré",
    "country": "AR",
    "coord": {
      "lon": -62.602169,
      "lat": -36.560371
    }
  },
  {
    "id": 3851181,
    "name": "La Francia",
    "country": "AR",
    "coord": {
      "lon": -62.633961,
      "lat": -31.40675
    }
  },
  {
    "id": 3855302,
    "name": "Funes",
    "country": "AR",
    "coord": {
      "lon": -60.809952,
      "lat": -32.91568
    }
  },
  {
    "id": 3432144,
    "name": "Lanteri",
    "country": "AR",
    "coord": {
      "lon": -59.63681,
      "lat": -28.84141
    }
  },
  {
    "id": 3433756,
    "name": "Gobernador Castro",
    "country": "AR",
    "coord": {
      "lon": -59.867802,
      "lat": -33.65802
    }
  },
  {
    "id": 3433424,
    "name": "Isidro Casanova",
    "country": "AR",
    "coord": {
      "lon": -58.590408,
      "lat": -34.699329
    }
  },
  {
    "id": 3845575,
    "name": "Los Surgentes",
    "country": "AR",
    "coord": {
      "lon": -62.021912,
      "lat": -32.984539
    }
  },
  {
    "id": 3858133,
    "name": "El Dorado",
    "country": "AR",
    "coord": {
      "lon": -61.58252,
      "lat": -34.650379
    }
  },
  {
    "id": 3853510,
    "name": "Jesus Maria",
    "country": "AR",
    "coord": {
      "lon": -64.094238,
      "lat": -30.981529
    }
  },
  {
    "id": 3855353,
    "name": "Frías",
    "country": "AR",
    "coord": {
      "lon": -65.13102,
      "lat": -28.635929
    }
  },
  {
    "id": 3846135,
    "name": "Los Gutiérrez",
    "country": "AR",
    "coord": {
      "lon": -65.133331,
      "lat": -26.799999
    }
  },
  {
    "id": 3855554,
    "name": "Firmat",
    "country": "AR",
    "coord": {
      "lon": -61.4832,
      "lat": -33.45937
    }
  },
  {
    "id": 3430943,
    "name": "Makalle",
    "country": "AR",
    "coord": {
      "lon": -59.286961,
      "lat": -27.206869
    }
  },
  {
    "id": 3853447,
    "name": "Juan Bautista Alberdi",
    "country": "AR",
    "coord": {
      "lon": -61.809818,
      "lat": -34.440102
    }
  },
  {
    "id": 3846080,
    "name": "Los Juries",
    "country": "AR",
    "coord": {
      "lon": -62.10862,
      "lat": -28.465389
    }
  },
  {
    "id": 3847858,
    "name": "Las Pulgas",
    "country": "AR",
    "coord": {
      "lon": -69.618858,
      "lat": -45.460979
    }
  },
  {
    "id": 3853963,
    "name": "Humaitá",
    "country": "AR",
    "coord": {
      "lon": -64.467598,
      "lat": -27.103519
    }
  },
  {
    "id": 3855603,
    "name": "Ferré",
    "country": "AR",
    "coord": {
      "lon": -61.138779,
      "lat": -34.127281
    }
  },
  {
    "id": 3854334,
    "name": "Hernandez",
    "country": "AR",
    "coord": {
      "lon": -60.021599,
      "lat": -32.337299
    }
  },
  {
    "id": 3856839,
    "name": "El Retiro",
    "country": "AR",
    "coord": {
      "lon": -64.481903,
      "lat": -31.18046
    }
  },
  {
    "id": 3856548,
    "name": "El Tala",
    "country": "AR",
    "coord": {
      "lon": -65.276428,
      "lat": -26.111759
    }
  },
  {
    "id": 3432355,
    "name": "La Leonesa",
    "country": "AR",
    "coord": {
      "lon": -58.703468,
      "lat": -27.037861
    }
  },
  {
    "id": 3854089,
    "name": "Huanqueros",
    "country": "AR",
    "coord": {
      "lon": -61.217709,
      "lat": -30.011511
    }
  },
  {
    "id": 3847103,
    "name": "Leales",
    "country": "AR",
    "coord": {
      "lon": -65.308891,
      "lat": -27.195169
    }
  },
  {
    "id": 3433817,
    "name": "General Belgrano",
    "country": "AR",
    "coord": {
      "lon": -58.493408,
      "lat": -35.76952
    }
  },
  {
    "id": 3855917,
    "name": "Estación Ramallo",
    "country": "AR",
    "coord": {
      "lon": -60.066669,
      "lat": -33.5
    }
  },
  {
    "id": 3845366,
    "name": "Lunlunta",
    "country": "AR",
    "coord": {
      "lon": -68.822617,
      "lat": -33.041229
    }
  },
  {
    "id": 3853706,
    "name": "Iriondo",
    "country": "AR",
    "coord": {
      "lon": -60.756271,
      "lat": -31.31448
    }
  },
  {
    "id": 3855041,
    "name": "General Villegas",
    "country": "AR",
    "coord": {
      "lon": -63.01252,
      "lat": -35.032848
    }
  },
  {
    "id": 3856047,
    "name": "Esmeralda",
    "country": "AR",
    "coord": {
      "lon": -61.93256,
      "lat": -31.61689
    }
  },
  {
    "id": 3845359,
    "name": "Luro",
    "country": "AR",
    "coord": {
      "lon": -62.133331,
      "lat": -36.633331
    }
  },
  {
    "id": 3856547,
    "name": "El Tala",
    "country": "AR",
    "coord": {
      "lon": -64.48333,
      "lat": -31.799999
    }
  },
  {
    "id": 3857887,
    "name": "El Hoyo",
    "country": "AR",
    "coord": {
      "lon": -63.231972,
      "lat": -27.028721
    }
  },
  {
    "id": 3856220,
    "name": "Emilio V. Bunge",
    "country": "AR",
    "coord": {
      "lon": -63.195572,
      "lat": -34.779819
    }
  },
  {
    "id": 3855056,
    "name": "General San Martin",
    "country": "AR",
    "coord": {
      "lon": -63.604488,
      "lat": -37.979038
    }
  },
  {
    "id": 8050985,
    "name": "Juana Koslay",
    "country": "AR",
    "coord": {
      "lon": -66.265282,
      "lat": -33.28944
    }
  },
  {
    "id": 3848687,
    "name": "Las Brenas",
    "country": "AR",
    "coord": {
      "lon": -61.081612,
      "lat": -27.089661
    }
  },
  {
    "id": 3848343,
    "name": "Las Higueras",
    "country": "AR",
    "coord": {
      "lon": -64.289001,
      "lat": -33.092312
    }
  },
  {
    "id": 3849075,
    "name": "La Reducción",
    "country": "AR",
    "coord": {
      "lon": -65.350533,
      "lat": -26.95529
    }
  },
  {
    "id": 3847328,
    "name": "Lavalle",
    "country": "AR",
    "coord": {
      "lon": -65.108513,
      "lat": -28.19635
    }
  },
  {
    "id": 3433456,
    "name": "Ingeniero Otamendi",
    "country": "AR",
    "coord": {
      "lon": -58.86417,
      "lat": -34.234169
    }
  },
  {
    "id": 3846869,
    "name": "Lin Calel",
    "country": "AR",
    "coord": {
      "lon": -60.245029,
      "lat": -38.7062
    }
  },
  {
    "id": 3847911,
    "name": "Las Perdices",
    "country": "AR",
    "coord": {
      "lon": -63.706341,
      "lat": -32.697941
    }
  },
  {
    "id": 3854296,
    "name": "Hilario",
    "country": "AR",
    "coord": {
      "lon": -69.407661,
      "lat": -31.48167
    }
  },
  {
    "id": 3857061,
    "name": "El Pueblito",
    "country": "AR",
    "coord": {
      "lon": -64.298599,
      "lat": -31.11578
    }
  },
  {
    "id": 3846484,
    "name": "Los Antiguos",
    "country": "AR",
    "coord": {
      "lon": -71.630859,
      "lat": -46.549721
    }
  },
  {
    "id": 3854438,
    "name": "Guerrico",
    "country": "AR",
    "coord": {
      "lon": -60.40062,
      "lat": -33.673439
    }
  },
  {
    "id": 3854981,
    "name": "Gobernador Gregores",
    "country": "AR",
    "coord": {
      "lon": -70.247414,
      "lat": -48.750568
    }
  },
  {
    "id": 3848890,
    "name": "Lartigau",
    "country": "AR",
    "coord": {
      "lon": -61.565498,
      "lat": -38.447201
    }
  },
  {
    "id": 3852374,
    "name": "La Calera",
    "country": "AR",
    "coord": {
      "lon": -64.335289,
      "lat": -31.343769
    }
  },
  {
    "id": 3853354,
    "name": "Junin",
    "country": "AR",
    "coord": {
      "lon": -60.943321,
      "lat": -34.58382
    }
  },
  {
    "id": 3854604,
    "name": "Guaminí",
    "country": "AR",
    "coord": {
      "lon": -62.416672,
      "lat": -37.033329
    }
  },
  {
    "id": 3846236,
    "name": "Los Condores",
    "country": "AR",
    "coord": {
      "lon": -64.277519,
      "lat": -32.319839
    }
  },
  {
    "id": 3431313,
    "name": "Lobos",
    "country": "AR",
    "coord": {
      "lon": -59.089748,
      "lat": -35.182861
    }
  },
  {
    "id": 3844899,
    "name": "Marcos Juarez",
    "country": "AR",
    "coord": {
      "lon": -62.10672,
      "lat": -32.6978
    }
  },
  {
    "id": 3854993,
    "name": "Gobernador Benegas",
    "country": "AR",
    "coord": {
      "lon": -68.849998,
      "lat": -32.950001
    }
  },
  {
    "id": 3855140,
    "name": "General Alvear",
    "country": "AR",
    "coord": {
      "lon": -60.669029,
      "lat": -31.94594
    }
  },
  {
    "id": 3845016,
    "name": "Manantiales Chicos",
    "country": "AR",
    "coord": {
      "lon": -60.3032,
      "lat": -33.865021
    }
  },
  {
    "id": 3854493,
    "name": "Guatrache",
    "country": "AR",
    "coord": {
      "lon": -63.53022,
      "lat": -37.667759
    }
  },
  {
    "id": 3431161,
    "name": "Los Helechos",
    "country": "AR",
    "coord": {
      "lon": -55.076832,
      "lat": -27.5576
    }
  },
  {
    "id": 3430876,
    "name": "Manzone",
    "country": "AR",
    "coord": {
      "lon": -58.868252,
      "lat": -34.484619
    }
  },
  {
    "id": 3844994,
    "name": "Manfredi",
    "country": "AR",
    "coord": {
      "lon": -63.747211,
      "lat": -31.844339
    }
  },
  {
    "id": 3431184,
    "name": "Los Conquistadores",
    "country": "AR",
    "coord": {
      "lon": -58.467731,
      "lat": -30.590799
    }
  },
  {
    "id": 3856231,
    "name": "Embarcacion",
    "country": "AR",
    "coord": {
      "lon": -64.096046,
      "lat": -23.208981
    }
  },
  {
    "id": 3854294,
    "name": "Hilario Ascasubi",
    "country": "AR",
    "coord": {
      "lon": -62.648151,
      "lat": -39.376598
    }
  },
  {
    "id": 3433580,
    "name": "Hasenkamp",
    "country": "AR",
    "coord": {
      "lon": -59.835449,
      "lat": -31.51226
    }
  },
  {
    "id": 3431188,
    "name": "Los Charruas",
    "country": "AR",
    "coord": {
      "lon": -58.18774,
      "lat": -31.17548
    }
  },
  {
    "id": 3431244,
    "name": "Loreto",
    "country": "AR",
    "coord": {
      "lon": -57.275311,
      "lat": -27.768339
    }
  },
  {
    "id": 3431245,
    "name": "Loreto",
    "country": "AR",
    "coord": {
      "lon": -55.522251,
      "lat": -27.336349
    }
  },
  {
    "id": 3848355,
    "name": "Las Heras",
    "country": "AR",
    "coord": {
      "lon": -63.916672,
      "lat": -31.566669
    }
  },
  {
    "id": 3850355,
    "name": "La Limpia",
    "country": "AR",
    "coord": {
      "lon": -60.591019,
      "lat": -35.076679
    }
  },
  {
    "id": 3431367,
    "name": "Libertad",
    "country": "AR",
    "coord": {
      "lon": -57.820202,
      "lat": -30.042999
    }
  },
  {
    "id": 3433910,
    "name": "Floresta",
    "country": "AR",
    "coord": {
      "lon": -58.46619,
      "lat": -34.63335
    }
  },
  {
    "id": 3431460,
    "name": "La Verde",
    "country": "AR",
    "coord": {
      "lon": -59.37352,
      "lat": -27.126341
    }
  },
  {
    "id": 3431777,
    "name": "Las Garcitas",
    "country": "AR",
    "coord": {
      "lon": -59.799999,
      "lat": -26.58333
    }
  },
  {
    "id": 3431916,
    "name": "Larroque",
    "country": "AR",
    "coord": {
      "lon": -59.001251,
      "lat": -33.03595
    }
  },
  {
    "id": 3851244,
    "name": "La Florida",
    "country": "AR",
    "coord": {
      "lon": -65.554497,
      "lat": -27.226839
    }
  },
  {
    "id": 3432122,
    "name": "Lapachito",
    "country": "AR",
    "coord": {
      "lon": -59.38604,
      "lat": -27.159981
    }
  },
  {
    "id": 3855607,
    "name": "Fernández",
    "country": "AR",
    "coord": {
      "lon": -63.89349,
      "lat": -27.92038
    }
  },
  {
    "id": 3848863,
    "name": "Las Acequias",
    "country": "AR",
    "coord": {
      "lon": -63.976101,
      "lat": -33.281551
    }
  },
  {
    "id": 3853616,
    "name": "Italo",
    "country": "AR",
    "coord": {
      "lon": -63.78199,
      "lat": -34.79237
    }
  },
  {
    "id": 3432463,
    "name": "Laguna Naick-Neck",
    "country": "AR",
    "coord": {
      "lon": -58.09383,
      "lat": -25.24769
    }
  },
  {
    "id": 3432466,
    "name": "Laguna Limpia",
    "country": "AR",
    "coord": {
      "lon": -59.680828,
      "lat": -26.495649
    }
  },
  {
    "id": 3432653,
    "name": "La Escondida",
    "country": "AR",
    "coord": {
      "lon": -59.447842,
      "lat": -27.107241
    }
  },
  {
    "id": 3432707,
    "name": "La Eduvigis",
    "country": "AR",
    "coord": {
      "lon": -59.06842,
      "lat": -26.85545
    }
  },
  {
    "id": 3855666,
    "name": "Famailla",
    "country": "AR",
    "coord": {
      "lon": -65.40329,
      "lat": -27.054131
    }
  },
  {
    "id": 3433663,
    "name": "Gualeguay",
    "country": "AR",
    "coord": {
      "lon": -59.309662,
      "lat": -33.14156
    }
  },
  {
    "id": 3855065,
    "name": "General Roca",
    "country": "AR",
    "coord": {
      "lon": -67.583328,
      "lat": -39.033329
    }
  },
  {
    "id": 3433648,
    "name": "Guarani",
    "country": "AR",
    "coord": {
      "lon": -55.166672,
      "lat": -27.51667
    }
  },
  {
    "id": 3432760,
    "name": "La Cruz",
    "country": "AR",
    "coord": {
      "lon": -56.643261,
      "lat": -29.174431
    }
  },
  {
    "id": 3855369,
    "name": "Fray Luis Beltrán",
    "country": "AR",
    "coord": {
      "lon": -68.65062,
      "lat": -33.00724
    }
  },
  {
    "id": 3855974,
    "name": "Esquel",
    "country": "AR",
    "coord": {
      "lon": -71.316673,
      "lat": -42.900002
    }
  },
  {
    "id": 3855690,
    "name": "Facundo",
    "country": "AR",
    "coord": {
      "lon": -69.973732,
      "lat": -45.309422
    }
  },
  {
    "id": 3434291,
    "name": "El Soberbio",
    "country": "AR",
    "coord": {
      "lon": -54.198769,
      "lat": -27.29846
    }
  },
  {
    "id": 3432768,
    "name": "La Criolla",
    "country": "AR",
    "coord": {
      "lon": -58.105579,
      "lat": -31.269039
    }
  },
  {
    "id": 3853938,
    "name": "Ibarlucea",
    "country": "AR",
    "coord": {
      "lon": -60.792721,
      "lat": -32.848202
    }
  },
  {
    "id": 3434146,
    "name": "Energía",
    "country": "AR",
    "coord": {
      "lon": -59.35519,
      "lat": -38.558601
    }
  },
  {
    "id": 3854916,
    "name": "Goudge",
    "country": "AR",
    "coord": {
      "lon": -68.131531,
      "lat": -34.679272
    }
  },
  {
    "id": 3433975,
    "name": "Ezeiza",
    "country": "AR",
    "coord": {
      "lon": -58.52869,
      "lat": -34.84787
    }
  },
  {
    "id": 3434509,
    "name": "El Palomar",
    "country": "AR",
    "coord": {
      "lon": -58.61528,
      "lat": -34.541672
    }
  },
  {
    "id": 3853958,
    "name": "Humboldt",
    "country": "AR",
    "coord": {
      "lon": -61.082401,
      "lat": -31.40099
    }
  },
  {
    "id": 3848588,
    "name": "Las Chacras",
    "country": "AR",
    "coord": {
      "lon": -65.776459,
      "lat": -32.56237
    }
  },
  {
    "id": 3433291,
    "name": "Juan Pujol",
    "country": "AR",
    "coord": {
      "lon": -57.856121,
      "lat": -30.41873
    }
  },
  {
    "id": 3433373,
    "name": "Ita Ibate",
    "country": "AR",
    "coord": {
      "lon": -57.337582,
      "lat": -27.42573
    }
  },
  {
    "id": 3433513,
    "name": "Ibarreta",
    "country": "AR",
    "coord": {
      "lon": -59.858509,
      "lat": -25.21438
    }
  },
  {
    "id": 3433567,
    "name": "Herradura",
    "country": "AR",
    "coord": {
      "lon": -58.311981,
      "lat": -26.487049
    }
  },
  {
    "id": 3853477,
    "name": "Josefina",
    "country": "AR",
    "coord": {
      "lon": -61.991829,
      "lat": -31.406219
    }
  },
  {
    "id": 3433522,
    "name": "Hurlingham",
    "country": "AR",
    "coord": {
      "lon": -58.63905,
      "lat": -34.58831
    }
  },
  {
    "id": 3431271,
    "name": "Lomas de Zamora",
    "country": "AR",
    "coord": {
      "lon": -58.406319,
      "lat": -34.76088
    }
  },
  {
    "id": 3431333,
    "name": "Liniers",
    "country": "AR",
    "coord": {
      "lon": -58.523861,
      "lat": -34.64286
    }
  },
  {
    "id": 3433575,
    "name": "Herlitzka",
    "country": "AR",
    "coord": {
      "lon": -58.255569,
      "lat": -27.565161
    }
  },
  {
    "id": 3855715,
    "name": "Eugenio Bustos",
    "country": "AR",
    "coord": {
      "lon": -69.070442,
      "lat": -33.77734
    }
  },
  {
    "id": 3431005,
    "name": "Lucas Gonzalez",
    "country": "AR",
    "coord": {
      "lon": -59.530128,
      "lat": -32.3843
    }
  },
  {
    "id": 3853644,
    "name": "Isla Verde",
    "country": "AR",
    "coord": {
      "lon": -64.150002,
      "lat": -28.65
    }
  },
  {
    "id": 3853592,
    "name": "Jacinto Arauz",
    "country": "AR",
    "coord": {
      "lon": -63.43169,
      "lat": -38.08606
    }
  },
  {
    "id": 3433293,
    "name": "Juan María Gutiérrez",
    "country": "AR",
    "coord": {
      "lon": -58.190182,
      "lat": -34.840092
    }
  },
  {
    "id": 3846374,
    "name": "Los Cardos",
    "country": "AR",
    "coord": {
      "lon": -61.63102,
      "lat": -32.32206
    }
  },
  {
    "id": 3433743,
    "name": "Gobernador Roca",
    "country": "AR",
    "coord": {
      "lon": -55.464329,
      "lat": -27.186359
    }
  },
  {
    "id": 3845344,
    "name": "Macachin",
    "country": "AR",
    "coord": {
      "lon": -63.6665,
      "lat": -37.135979
    }
  },
  {
    "id": 3852480,
    "name": "Laborde",
    "country": "AR",
    "coord": {
      "lon": -62.856609,
      "lat": -33.153191
    }
  },
  {
    "id": 3434095,
    "name": "Esquina",
    "country": "AR",
    "coord": {
      "lon": -59.527191,
      "lat": -30.014441
    }
  },
  {
    "id": 3433747,
    "name": "Gobernador Mansilla",
    "country": "AR",
    "coord": {
      "lon": -59.354801,
      "lat": -32.544529
    }
  },
  {
    "id": 3845406,
    "name": "Lugones",
    "country": "AR",
    "coord": {
      "lon": -63.339821,
      "lat": -28.33588
    }
  },
  {
    "id": 3434155,
    "name": "Empalme San Vicente",
    "country": "AR",
    "coord": {
      "lon": -58.376171,
      "lat": -34.982639
    }
  },
  {
    "id": 3855075,
    "name": "General Pico",
    "country": "AR",
    "coord": {
      "lon": -63.756821,
      "lat": -35.65662
    }
  },
  {
    "id": 3433751,
    "name": "Gobernador Juan E. Martinez",
    "country": "AR",
    "coord": {
      "lon": -58.932919,
      "lat": -28.917049
    }
  },
  {
    "id": 3846864,
    "name": "Lincoln",
    "country": "AR",
    "coord": {
      "lon": -61.530201,
      "lat": -34.866489
    }
  },
  {
    "id": 3847599,
    "name": "Las Vertientes",
    "country": "AR",
    "coord": {
      "lon": -64.579079,
      "lat": -33.283371
    }
  },
  {
    "id": 3855104,
    "name": "General La Madrid",
    "country": "AR",
    "coord": {
      "lon": -61.26273,
      "lat": -37.247559
    }
  },
  {
    "id": 3853923,
    "name": "Idiazabal",
    "country": "AR",
    "coord": {
      "lon": -63.03252,
      "lat": -32.81411
    }
  },
  {
    "id": 3433773,
    "name": "General Vedia",
    "country": "AR",
    "coord": {
      "lon": -58.6604,
      "lat": -26.933821
    }
  },
  {
    "id": 3847557,
    "name": "La Tablada",
    "country": "AR",
    "coord": {
      "lon": -65.305542,
      "lat": -31.455669
    }
  },
  {
    "id": 3853824,
    "name": "Inés Indart",
    "country": "AR",
    "coord": {
      "lon": -60.539322,
      "lat": -34.39624
    }
  },
  {
    "id": 3855284,
    "name": "Gaiman",
    "country": "AR",
    "coord": {
      "lon": -65.492897,
      "lat": -43.2897
    }
  },
  {
    "id": 3853412,
    "name": "Juárez Celman",
    "country": "AR",
    "coord": {
      "lon": -64.166107,
      "lat": -31.258089
    }
  },
  {
    "id": 3855719,
    "name": "Etruria",
    "country": "AR",
    "coord": {
      "lon": -63.246601,
      "lat": -32.940079
    }
  },
  {
    "id": 3433809,
    "name": "General Galarza",
    "country": "AR",
    "coord": {
      "lon": -59.396149,
      "lat": -32.720341
    }
  },
  {
    "id": 3433815,
    "name": "General Campos",
    "country": "AR",
    "coord": {
      "lon": -58.4049,
      "lat": -31.523109
    }
  },
  {
    "id": 3849924,
    "name": "La Mendieta",
    "country": "AR",
    "coord": {
      "lon": -64.963768,
      "lat": -24.311871
    }
  },
  {
    "id": 3855357,
    "name": "Freyre",
    "country": "AR",
    "coord": {
      "lon": -62.09861,
      "lat": -31.16448
    }
  },
  {
    "id": 3855074,
    "name": "General Pinedo",
    "country": "AR",
    "coord": {
      "lon": -61.283329,
      "lat": -27.316669
    }
  },
  {
    "id": 3845676,
    "name": "Los Quebrachos",
    "country": "AR",
    "coord": {
      "lon": -61.206879,
      "lat": -31.6031
    }
  },
  {
    "id": 3849980,
    "name": "La Maruja",
    "country": "AR",
    "coord": {
      "lon": -64.939972,
      "lat": -35.673599
    }
  },
  {
    "id": 3433820,
    "name": "General Alvear",
    "country": "AR",
    "coord": {
      "lon": -55.166672,
      "lat": -27.433331
    }
  },